web-scraper-order;address_raw;datetime;rooms;area;luxurious;price;price_per_m2;lat;lon;bfs_number;bfs_name;pop;pop_dens;frg_pct;emp;tax_income;dist_supermarket
1662023695-433;Sunnenbergstrasse 15, 8633 Wolfhausen, ZH;17.09.2022 11:44;3.5;122;1;3180;26.07;47.25571442;8.80497551;112;Bubikon;7344;632.5581395;11.41067538;3617;79385.90434;317.1179163
1662023720-634;Blumenbergstrasse 7, 8633 Wolfhausen, ZH;17.09.2022 11:44;4;87;0;1690;19.43;47.254879;8.793745995;112;Bubikon;7344;632.5581395;11.41067538;3617;79385.90434;612.6126742
1662023745-834;8608 Bubikon, ZH;17.09.2022 11:44;3.5;92;0;2350;25.54;47.27738571;8.80030632;112;Bubikon;7344;632.5581395;11.41067538;3617;79385.90434;2269.090923
1662023701-503;8608 Bubikon, ZH;17.09.2022 11:44;3.5;130;0;2500;19.23;47.27738571;8.80030632;112;Bubikon;7344;632.5581395;11.41067538;3617;79385.90434;2269.090923
1662023745-820;Lavaterstr. 63, 8002 Zürich, ZH;17.09.2022 11:44;2.5;78;0;3760;48.21;47.36137772;8.533338547;261;Zürich;420217;4778.994655;32.45846789;491193;82932.7377;349.9374209
1662023739-771;Parkring 59, 8002 Zürich, ZH;17.09.2022 11:44;5.5;195;1;6900;35.38;47.36689758;8.528817177;261;Zürich;420217;4778.994655;32.45846789;491193;82932.7377;352.818683
1662023720-640;Flobotstrasse 2, 8044 Zürich, ZH;17.09.2022 11:44;2.5;59;0;2920;49.49;47.37957764;8.570284843;261;Zürich;420217;4778.994655;32.45846789;491193;82932.7377;818.9852416
1662023686-384;Hinterbergstrasse 57, 8044 Zürich, ZH;17.09.2022 11:44;3;75;0;3003;40.04;47.38201523;8.556857109;261;Zürich;420217;4778.994655;32.45846789;491193;82932.7377;352.7132498
1662023789-1164;Nansenstrasse 7, 8050 Zürich, ZH;17.09.2022 11:44;2.5;58;0;1780;30.69;47.41076279;8.545214653;261;Zürich;420217;4778.994655;32.45846789;491193;82932.7377;33.39984271
1662023764-980;Wehntalerstrasse 223, 8057 Zürich, ZH;17.09.2022 11:44;3;52;0;1600;30.77;47.40802002;8.529781342;261;Zürich;420217;4778.994655;32.45846789;491193;82932.7377;414.0857983
1662023767-1007;Baumackerstrasse 47, 8050 Zürich, ZH;17.09.2022 11:44;1;15;0;1240;82.67;47.4094429;8.54227829;261;Zürich;420217;4778.994655;32.45846789;491193;82932.7377;111.1553966
1662023704-520;Zwischenbächen 139, 8048 Zürich, ZH;17.09.2022 11:44;1.5;35;0;1870;53.43;47.38048935;8.479800224;261;Zürich;420217;4778.994655;32.45846789;491193;82932.7377;592.5255648
1662023698-468;Hallwylstrasse 84, 8004 Zürich, ZH;17.09.2022 11:44;2.5;75;0;3240;43.2;47.36981583;8.526166916;261;Zürich;420217;4778.994655;32.45846789;491193;82932.7377;418.182471
1662023789-1172;Pfingstweidstrasse 104 E, 8005 Zürich, ZH;17.09.2022 11:44;2;80;1;2790;34.88;47.39086151;8.50905323;261;Zürich;420217;4778.994655;32.45846789;491193;82932.7377;88.59542111
1662023752-867;Altwiesenstrasse 346, 8051 Zürich, ZH;17.09.2022 11:44;3.5;76;0;1990;26.18;47.39995956;8.590506554;261;Zürich;420217;4778.994655;32.45846789;491193;82932.7377;201.2387096
1662023761-945;Badenerstrasse 250, 8004 Zürich, ZH;17.09.2022 11:44;1.5;25;0;2100;84;47.37598801;8.516037941;261;Zürich;420217;4778.994655;32.45846789;491193;82932.7377;108.2571857
1662023774-1056;Schöntalstrasse 27, 8004 Zürich, ZH;17.09.2022 11:44;2.5;48;0;3190;66.46;47.37080765;8.526028633;261;Zürich;420217;4778.994655;32.45846789;491193;82932.7377;344.351308
1662023761-941;Am Wasser 161, 8049 Zürich, ZH;17.09.2022 11:44;1.5;32;0;2100;65.62;47.39943695;8.495816231;261;Zürich;420217;4778.994655;32.45846789;491193;82932.7377;407.4024613
1662023786-1149;Freudenbergstrasse 94, 8044 Zürich, ZH;17.09.2022 11:44;4.5;128;0;6630;51.8;47.38413239;8.556531906;261;Zürich;420217;4778.994655;32.45846789;491193;82932.7377;572.5199884
1662023755-909;Lavaterstr. 63, 8002 Zürich, ZH;17.09.2022 11:44;2.5;79;0;3500;44.3;47.36137772;8.533338547;261;Zürich;420217;4778.994655;32.45846789;491193;82932.7377;349.9374209
1662023714-590;Meientalstrasse 65, 8048 Zürich, ZH;17.09.2022 11:44;2.5;82;0;2875;35.06;47.38584137;8.47841835;261;Zürich;420217;4778.994655;32.45846789;491193;82932.7377;565.4004901
1662023801-1270;Affolternstrasse 154, 8050 Zürich, ZH;17.09.2022 11:44;5.5;195;1;4200;21.54;47.41136551;8.532044411;261;Zürich;420217;4778.994655;32.45846789;491193;82932.7377;303.6519397
1662023786-1131;Seestrasse 361, 8038 Zürich, ZH;17.09.2022 11:44;1;45;0;1216;27.02;47.3453064;8.533795357;261;Zürich;420217;4778.994655;32.45846789;491193;82932.7377;216.0176946
1662023730-716;Hohlstr. 509, 8048 Zürich, ZH;17.09.2022 11:44;2.5;73;0;2378;32.58;47.38897324;8.493876457;261;Zürich;420217;4778.994655;32.45846789;491193;82932.7377;217.7142784
1662023798-1239;Feldblumenstrasse 10, 8048 Zürich, ZH;17.09.2022 11:44;2.5;65;0;2470;38;47.38809967;8.482545853;261;Zürich;420217;4778.994655;32.45846789;491193;82932.7377;228.5268013
1662023695-453;Letzigraben 171, 8047 Zürich, ZH;17.09.2022 11:44;3.5;68;0;2680;39.41;47.37362289;8.495223999;261;Zürich;420217;4778.994655;32.45846789;491193;82932.7377;358.6187113
1662023695-436;Fritz Fleiner-Weg 11, 8044 Zürich, ZH;17.09.2022 11:44;2.5;84;0;3540;42.14;47.38129807;8.562218666;261;Zürich;420217;4778.994655;32.45846789;491193;82932.7377;297.3303297
1662023786-1150;Uhlandstrasse 6, 8037 Zürich, ZH;17.09.2022 11:44;3.5;69;0;4600;66.67;47.3944664;8.528930664;261;Zürich;420217;4778.994655;32.45846789;491193;82932.7377;87.58157882
1662023714-581;Frohburgstrasse 303, 8057 Zürich, ZH;17.09.2022 11:44;1.5;29;0;1450;50;47.40309143;8.557792664;261;Zürich;420217;4778.994655;32.45846789;491193;82932.7377;971.5839047
1662023807-1317;Hätzlergasse 28, 8048 Zürich, ZH;17.09.2022 11:44;1.5;40;0;1525;38.12;47.39047623;8.468478203;261;Zürich;420217;4778.994655;32.45846789;491193;82932.7377;264.844568
1662023701-483;8048 Zürich, ZH;17.09.2022 11:44;3.5;110;0;2880;26.18;47.38191605;8.482671738;261;Zürich;420217;4778.994655;32.45846789;491193;82932.7377;668.4729887
1662023810-1322;8001 Zürich, ZH;17.09.2022 11:44;5;80;0;2900;36.25;47.36893463;8.541392326;261;Zürich;420217;4778.994655;32.45846789;491193;82932.7377;7.371820841
1662023795-1221;Carmenstrasse 16, 8032 Zürich, ZH;17.09.2022 11:44;3.5;82;0;3550;43.29;47.36975479;8.56103611;261;Zürich;420217;4778.994655;32.45846789;491193;82932.7377;215.6121059
1662023801-1263;Forsterstrasse, 8044 Zürich, ZH;17.09.2022 11:44;4;120;0;3280;27.33;47.38007736;8.564464569;261;Zürich;420217;4778.994655;32.45846789;491193;82932.7377;385.1062714
1662023727-676;Im Trichtisal 7, 8053 Zürich, ZH;17.09.2022 11:44;3;79;0;2760;34.94;47.3551178;8.603344917;261;Zürich;420217;4778.994655;32.45846789;491193;82932.7377;862.765083
1662023780-1096;Staffelstrasse 13, 8045 Zürich, ZH;17.09.2022 11:44;3.5;110;0;5170;47;47.36064529;8.520667076;261;Zürich;420217;4778.994655;32.45846789;491193;82932.7377;341.3301121
1662023733-742;Giessereistrasse 12, 8005 Zürich, ZH;17.09.2022 11:44;2.5;282;0;7500;26.6;47.39022064;8.518072128;261;Zürich;420217;4778.994655;32.45846789;491193;82932.7377;56.84227615
1662023707-529;Rebgasse 8, 8004 Zürich, ZH;17.09.2022 11:44;2.5;57;0;3540;62.11;47.3741684;8.530760765;261;Zürich;420217;4778.994655;32.45846789;491193;82932.7377;98.99866056
1662023733-734;Fellenbergstrasse 319, 8047 Zürich, ZH;17.09.2022 11:44;3.5;72;0;2190;30.42;47.37513351;8.487833023;261;Zürich;420217;4778.994655;32.45846789;491193;82932.7377;104.3931188
1662023723-662;Bucheggstrasse 157, 8057 Zürich, ZH;17.09.2022 11:44;2.5;52;0;2840;54.62;47.39902115;8.540755272;261;Zürich;420217;4778.994655;32.45846789;491193;82932.7377;367.1124804
1662023795-1220;Grimselstrasse 19, 8048 Zürich, ZH;17.09.2022 11:44;2;47;0;1414;30.09;47.38568497;8.489228249;261;Zürich;420217;4778.994655;32.45846789;491193;82932.7377;193.1990483
1662023813-1364;Viktoriastrasse 29, 8057 Zürich, ZH;17.09.2022 11:44;1.5;23;0;1552;67.48;47.40406799;8.550452232;261;Zürich;420217;4778.994655;32.45846789;491193;82932.7377;191.0680994
1662023736-764;Gladbachstr. 120, 8044 Zürich, ZH;17.09.2022 11:44;3;74;0;2422;32.73;47.37733841;8.55854702;261;Zürich;420217;4778.994655;32.45846789;491193;82932.7377;129.4284248
1662023793-1195;Schaffhauserstrasse 456, 8052 Zürich, ZH;17.09.2022 11:44;4.5;126;0;3380;26.83;47.41805267;8.546833038;261;Zürich;420217;4778.994655;32.45846789;491193;82932.7377;196.759057
1662023752-879;Badenerstrasse  250, 8004 Zürich, ZH;17.09.2022 11:44;2.5;58;0;2900;50;47.37598801;8.516037941;261;Zürich;420217;4778.994655;32.45846789;491193;82932.7377;108.2571857
1662023777-1058;Hardturmstr. 5, 8005 Zürich, ZH;17.09.2022 11:44;2.5;92;0;4410;47.93;47.39119339;8.519919395;261;Zürich;420217;4778.994655;32.45846789;491193;82932.7377;132.3971727
1662023786-1137;Glatttalstrasse 106, 8052 Zürich, ZH;17.09.2022 11:44;3.5;92;0;2010;21.85;47.43009186;8.544836998;261;Zürich;420217;4778.994655;32.45846789;491193;82932.7377;779.5857946
1662023739-787;Langgrütstrasse 104, 8047 Zürich, ZH;17.09.2022 11:44;3.5;82;0;3370;41.1;47.37329483;8.495368004;261;Zürich;420217;4778.994655;32.45846789;491193;82932.7377;387.3117848
1662023723-666;8001 Zürich, ZH;17.09.2022 11:44;4.5;137;0;16;0.12;47.36893463;8.541392326;261;Zürich;420217;4778.994655;32.45846789;491193;82932.7377;7.371820841
1662023807-1311;Schaffhauserstrasse 473, 8052 Zürich, ZH;17.09.2022 11:44;1;47;0;1170;24.89;47.42004013;8.548195839;261;Zürich;420217;4778.994655;32.45846789;491193;82932.7377;57.98353689
1662023761-944;Am Wasser 161, 8049 Zürich, ZH;17.09.2022 11:44;1.5;32;0;2100;65.62;47.39943695;8.495816231;261;Zürich;420217;4778.994655;32.45846789;491193;82932.7377;407.4024613
1662023804-1296;Nordstrasse 135, 8037 Zürich, ZH;17.09.2022 11:44;4;70;0;2950;42.14;47.39029312;8.533413887;261;Zürich;420217;4778.994655;32.45846789;491193;82932.7377;517.6510508
1662023692-412;Im Isengrind 11, 8046 Zürich, ZH;17.09.2022 11:44;3.5;80;0;2100;26.25;47.42313766;8.511916161;261;Zürich;420217;4778.994655;32.45846789;491193;82932.7377;411.3375249
1662023701-494;Herrligweg 9, 8048 Zürich, ZH;17.09.2022 11:44;2.5;60;0;2500;41.67;47.38989258;8.484477997;261;Zürich;420217;4778.994655;32.45846789;491193;82932.7377;233.8651918
1662023749-856;Flobotstrasse 2, 8044 Zürich, ZH;17.09.2022 11:44;3.5;111;1;5620;50.63;47.37957764;8.570284843;261;Zürich;420217;4778.994655;32.45846789;491193;82932.7377;818.9852416
1662023795-1219;Maneggplatz 16, 8041 Zürich, ZH;17.09.2022 11:44;2.5;65;0;2300;35.38;47.3398819;8.520716667;261;Zürich;420217;4778.994655;32.45846789;491193;82932.7377;451.2688964
1662023736-751;Hinterbergstrasse 106, 8044 Zürich, ZH;17.09.2022 11:44;2.5;98;1;2995;30.56;47.38513184;8.559892654;261;Zürich;420217;4778.994655;32.45846789;491193;82932.7377;639.7723857
1662023771-1013;Mühlebachstr. 28, 8008 Zürich, ZH;17.09.2022 11:44;2.5;94;0;4585;48.78;47.36485672;8.550126076;261;Zürich;420217;4778.994655;32.45846789;491193;82932.7377;189.7160462
1662023786-1152;Widmerstrasse 19, 8038 Zürich, ZH;17.09.2022 11:44;1;44;0;1525;34.66;47.3376503;8.536156654;261;Zürich;420217;4778.994655;32.45846789;491193;82932.7377;502.1384383
1662023789-1174;Albisstrasse 118, 8038 Zürich, ZH;17.09.2022 11:44;2.5;62;0;2220;35.81;47.33719254;8.529808998;261;Zürich;420217;4778.994655;32.45846789;491193;82932.7377;274.4158597
1662023752-880;Badenerstrasse 250, 8004 Zürich, ZH;17.09.2022 11:44;2.5;58;0;3100;53.45;47.37598801;8.516037941;261;Zürich;420217;4778.994655;32.45846789;491193;82932.7377;108.2571857
1662023789-1165;Im Altried 1f, 8051 Zürich, ZH;17.09.2022 11:44;3.5;89;0;2090;23.48;47.40413284;8.591003418;261;Zürich;420217;4778.994655;32.45846789;491193;82932.7377;147.0993161
1662023749-847;Jenatschstrasse 5, 8002 Zürich, ZH;17.09.2022 11:44;2.5;60;0;2900;48.33;47.36404419;8.533887863;261;Zürich;420217;4778.994655;32.45846789;491193;82932.7377;222.3498635
1662023771-1009;Dörflistrasse  112, 8050 Zürich, ZH;17.09.2022 11:44;3.5;72;0;3300;45.83;47.41082382;8.547832489;261;Zürich;420217;4778.994655;32.45846789;491193;82932.7377;91.00708381
1662023755-912;Austrasse 27, 8045 Zürich, ZH;17.09.2022 11:44;3;68;0;2500;36.76;47.36555099;8.519927025;261;Zürich;420217;4778.994655;32.45846789;491193;82932.7377;111.1209651
1662023742-812;Pfingstweidstrasse 98, 8005 Zürich, ZH;17.09.2022 11:44;2.5;121;1;4022;33.24;47.39064026;8.510338783;261;Zürich;420217;4778.994655;32.45846789;491193;82932.7377;138.5646589
1662023761-950;Albisstrasse 170, 8038 Zürich, ZH;17.09.2022 11:44;3;67;0;2295;34.25;47.3330307;8.529637337;261;Zürich;420217;4778.994655;32.45846789;491193;82932.7377;188.82553
1662023774-1055;Uhlandstrasse 6, 8037 Zürich, ZH;17.09.2022 11:44;3.5;76;0;4890;64.34;47.3944664;8.528930664;261;Zürich;420217;4778.994655;32.45846789;491193;82932.7377;87.58157882
1662023742-799;8048 Zürich, ZH;17.09.2022 11:44;4.5;135;0;4490;33.26;47.38191605;8.482671738;261;Zürich;420217;4778.994655;32.45846789;491193;82932.7377;668.4729887
1662023755-890;Seefeldstr. 168, 8008 Zürich, ZH;17.09.2022 11:44;4.5;81;0;3990;49.26;47.35554504;8.556349754;261;Zürich;420217;4778.994655;32.45846789;491193;82932.7377;295.7654712
1662023783-1110;Grosswiesenstrasse 22, 8051 Zürich, ZH;17.09.2022 11:44;2;43;0;1265;29.42;47.40335846;8.583616257;261;Zürich;420217;4778.994655;32.45846789;491193;82932.7377;495.960174
1662023742-801;Albisriederplatz 1, 8003 Zürich, ZH;17.09.2022 11:44;3;68;0;2900;42.65;47.37791061;8.510482788;261;Zürich;420217;4778.994655;32.45846789;491193;82932.7377;59.66524612
1662023723-654;8046 Zürich, ZH;17.09.2022 11:44;3.5;105;0;1990;18.95;47.42034149;8.502178192;261;Zürich;420217;4778.994655;32.45846789;491193;82932.7377;308.0300828
1662023777-1067;Wehntalerstrasse 286, 8046 Zürich, ZH;17.09.2022 11:44;4.5;101;0;2570;25.45;47.41147232;8.525978088;261;Zürich;420217;4778.994655;32.45846789;491193;82932.7377;37.93871267
1662023813-1357;Herrligweg 9, 8048 Zürich, ZH;17.09.2022 11:44;1.5;32;0;2070;64.69;47.38989258;8.484477997;261;Zürich;420217;4778.994655;32.45846789;491193;82932.7377;233.8651918
1662023714-584;8001 Zürich, ZH;17.09.2022 11:44;1;28;0;2699;96.39;47.36893463;8.541392326;261;Zürich;420217;4778.994655;32.45846789;491193;82932.7377;7.371820841
1662023771-1030;Parkring 57, 8002 Zürich, ZH;17.09.2022 11:44;5;187;1;8900;47.59;47.36673355;8.528434753;261;Zürich;420217;4778.994655;32.45846789;491193;82932.7377;351.3913404
1662023755-901;Seestrasse 412, 8038 Zürich, ZH;17.09.2022 11:44;3.5;84;0;3190;37.98;47.34281921;8.535778999;261;Zürich;420217;4778.994655;32.45846789;491193;82932.7377;526.8369743
1662023767-1008;Langwiesstrasse, 8050 Zürich, ZH;17.09.2022 11:44;3.5;78;0;2130;27.31;47.41059875;8.53764534;261;Zürich;420217;4778.994655;32.45846789;491193;82932.7377;363.9142439
1662023714-594;8053 Zürich, ZH;17.09.2022 11:44;2.5;60;0;2780;46.33;47.35861588;8.578998566;261;Zürich;420217;4778.994655;32.45846789;491193;82932.7377;499.5722125
1662023807-1315;Witikonerstrasse 297, 8053 Zürich, ZH;17.09.2022 11:44;2.5;63;0;1950;30.95;47.359478;8.585931778;261;Zürich;420217;4778.994655;32.45846789;491193;82932.7377;38.17423507
1662023730-710;Soodstrasse 88, 8041 Zürich, ZH;17.09.2022 11:44;4.5;97;0;3850;39.69;47.32582855;8.518373489;261;Zürich;420217;4778.994655;32.45846789;491193;82932.7377;299.1223701
1662023723-658;Letzigraben 120, 8047 Zürich, ZH;17.09.2022 11:44;1.5;37;0;1947;52.62;47.37661362;8.49714756;261;Zürich;420217;4778.994655;32.45846789;491193;82932.7377;18.30040724
1662023717-624;Seestrasse 412, 8038 Zürich, ZH;17.09.2022 11:44;3.5;84;0;3460;41.19;47.34281921;8.535778999;261;Zürich;420217;4778.994655;32.45846789;491193;82932.7377;526.8369743
1662023739-791;Badenerstrasse  250, 8004 Zürich, ZH;17.09.2022 11:44;3.5;74;1;4200;56.76;47.37598801;8.516037941;261;Zürich;420217;4778.994655;32.45846789;491193;82932.7377;108.2571857
1662023795-1216;Ziegelstrasse 20, 8038 Zürich, ZH;17.09.2022 11:44;3.5;61;0;1490;24.43;47.34078217;8.528296471;261;Zürich;420217;4778.994655;32.45846789;491193;82932.7377;175.3358759
1662023736-747;8052 Zürich, ZH;17.09.2022 11:44;2.5;70;1;3300;47.14;47.41648865;8.54884243;261;Zürich;420217;4778.994655;32.45846789;491193;82932.7377;339.8709852
1662023777-1077;Soodstrasse 90, 8041 Zürich, ZH;17.09.2022 11:44;1.5;231;0;2990;12.94;47.3256073;8.518198967;261;Zürich;420217;4778.994655;32.45846789;491193;82932.7377;290.4669994
1662023686-362;Hofwiesenstrasse 135, 8057 Zürich, ZH;17.09.2022 11:44;3.5;90;0;3800;42.22;47.39908981;8.532793999;261;Zürich;420217;4778.994655;32.45846789;491193;82932.7377;27.78041025
1662023804-1295;Wiesliacher 16, 8053 Zürich, ZH;17.09.2022 11:44;4;108;0;2435;22.55;47.35474014;8.599199295;261;Zürich;420217;4778.994655;32.45846789;491193;82932.7377;695.2257646
1662023711-558;Staffelstrasse 13, 8045 Zürich, ZH;17.09.2022 11:44;3.5;110;0;5870;53.36;47.36064529;8.520667076;261;Zürich;420217;4778.994655;32.45846789;491193;82932.7377;341.3301121
1662023780-1099;Grosswiesenstrasse 2, 8051 Zürich, ZH;17.09.2022 11:44;2;43;0;1235;28.72;47.40344238;8.582525253;261;Zürich;420217;4778.994655;32.45846789;491193;82932.7377;514.4449625
1662023695-455;Kasernenstrasse 11, 8004 Zürich, ZH;17.09.2022 11:44;1;59;0;2270;38.47;47.37397003;8.531791687;261;Zürich;420217;4778.994655;32.45846789;491193;82932.7377;119.8573931
1662023783-1128;Zwinglistrasse 35, 8004 Zürich, ZH;17.09.2022 11:44;3;49;0;2670;54.49;47.37862396;8.527950287;261;Zürich;420217;4778.994655;32.45846789;491193;82932.7377;206.102605
1662023707-546;Rigistr. 52, 8006 Zürich, ZH;17.09.2022 11:44;4.5;126;0;4330;34.37;47.38480377;8.550923347;261;Zürich;420217;4778.994655;32.45846789;491193;82932.7377;214.0885414
1662023755-889;Schwandenholzstrasse 232, 8046 Zürich, ZH;17.09.2022 11:44;4.5;108;0;2630;24.35;47.42425537;8.521562576;261;Zürich;420217;4778.994655;32.45846789;491193;82932.7377;1473.116272
1662023758-915;Walchestr. 25, 8006 Zürich, ZH;17.09.2022 11:44;5;181;0;5320;29.39;47.38114166;8.541439056;261;Zürich;420217;4778.994655;32.45846789;491193;82932.7377;326.2823181
1662023745-832;Calandastrasse 3, 8048 Zürich, ZH;17.09.2022 11:44;2.5;65;0;1640;25.23;47.38764954;8.489997864;261;Zürich;420217;4778.994655;32.45846789;491193;82932.7377;85.58337348
1662023701-488;8006 Zürich, ZH;17.09.2022 11:44;3.5;96;0;4500;46.88;47.39287567;8.551520348;261;Zürich;420217;4778.994655;32.45846789;491193;82932.7377;794.441986
1662023689-395;Billeterstrasse 15, 8044 Zürich, ZH;17.09.2022 11:44;1;29;0;1590;54.83;47.37915802;8.566191673;261;Zürich;420217;4778.994655;32.45846789;491193;82932.7377;507.1277938
1662023801-1262;Giacomettistrasse 17, 8049 Zürich, ZH;17.09.2022 11:44;1.5;130;0;1800;13.85;47.40287399;8.505340576;261;Zürich;420217;4778.994655;32.45846789;491193;82932.7377;500.2852682
1662023752-871;Kreuzstrasse 64, 8008 Zürich, ZH;17.09.2022 11:44;3.5;125;0;6390;51.12;47.36457825;8.552704811;261;Zürich;420217;4778.994655;32.45846789;491193;82932.7377;86.25387749
1662023758-933;Eggbühlstrasse 1, 8050 Zürich, ZH;17.09.2022 11:44;4.5;98;0;3299;33.66;47.41617584;8.54477787;261;Zürich;420217;4778.994655;32.45846789;491193;82932.7377;404.1037511
1662023695-445;Eibenstrasse 6, 8045 Zürich, ZH;17.09.2022 11:44;4;72;0;2280;31.67;47.36368561;8.521366119;261;Zürich;420217;4778.994655;32.45846789;491193;82932.7377;134.632927
1662023755-905;Butzenstrasse 2, 8038 Zürich, ZH;17.09.2022 11:44;1.5;30;0;1480;49.33;47.3415451;8.530033112;261;Zürich;420217;4778.994655;32.45846789;491193;82932.7377;77.30744587
1662023795-1223;Eggbühlstrasse 24, 8050 Zürich, ZH;17.09.2022 11:44;4.5;111;0;3765;33.92;47.41639709;8.543224335;261;Zürich;420217;4778.994655;32.45846789;491193;82932.7377;386.5196066
1662023701-482;Limmatquai 70, 8001 Zürich, ZH;17.09.2022 11:44;1;20;0;2150;107.5;47.37271881;8.542970657;261;Zürich;420217;4778.994655;32.45846789;491193;82932.7377;450.3074494
1662023733-740;Affolternstrasse 103, 8050 Zürich, ZH;17.09.2022 11:44;1;22;0;1300;59.09;47.41026306;8.536553383;261;Zürich;420217;4778.994655;32.45846789;491193;82932.7377;428.8356504
1662023793-1182;Zürcherstrasse 5, 8102 Oberengstringen, ZH;17.09.2022 11:44;2.5;57;0;1370;24.04;47.4050293;8.477233887;261;Zürich;420217;4778.994655;32.45846789;491193;82932.7377;326.9483076
1662023767-994;Forchstr. 26, 8008 Zürich, ZH;17.09.2022 11:44;3.5;85;0;3415;40.18;47.36399078;8.556114197;261;Zürich;420217;4778.994655;32.45846789;491193;82932.7377;81.96943931
1662023739-789;Langgrütstrasse 96, 8047 Zürich, ZH;17.09.2022 11:44;3.5;71;0;3190;44.93;47.37327576;8.495824814;261;Zürich;420217;4778.994655;32.45846789;491193;82932.7377;377.4372246
1662023774-1053;Scheffelstrasse 11, 8037 Zürich, ZH;17.09.2022 11:44;3.5;76;0;4550;59.87;47.39439011;8.529122353;261;Zürich;420217;4778.994655;32.45846789;491193;82932.7377;76.36840439
1662023695-456;8005 Zürich, ZH;17.09.2022 11:44;2.5;96;0;3688;38.42;47.38420486;8.531729698;261;Zürich;420217;4778.994655;32.45846789;491193;82932.7377;9.417739806
1662023789-1167;Magdalenenstrasse 9, 8050 Zürich, ZH;17.09.2022 11:44;2.5;103;0;3120;30.29;47.40725327;8.551426888;261;Zürich;420217;4778.994655;32.45846789;491193;82932.7377;178.4695226
1662023767-988;Kreuzstrasse 55, 8008 Zürich, ZH;17.09.2022 11:44;2.5;71;0;3090;43.52;47.3645401;8.552120209;261;Zürich;420217;4778.994655;32.45846789;491193;82932.7377;130.5374186
1662023742-803;Emil Oprecht-Str. 1, 8050 Zürich, ZH;17.09.2022 11:44;4.5;99;0;2900;29.29;47.41197968;8.541033745;261;Zürich;420217;4778.994655;32.45846789;491193;82932.7377;163.971253
1662023704-517;Schaffhauserstrasse 475, 8052 Zürich, ZH;17.09.2022 11:44;2;54;0;1904;35.26;47.42020035;8.548353195;261;Zürich;420217;4778.994655;32.45846789;491193;82932.7377;75.56612649
1662023789-1162;Seefeldstr. 117, 8008 Zürich, ZH;17.09.2022 11:44;4;97;0;3665;37.78;47.35837936;8.554369926;261;Zürich;420217;4778.994655;32.45846789;491193;82932.7377;22.40787818
1662023755-893;Röntgenstrasse 48, 8005 Zürich, ZH;17.09.2022 11:44;2.5;67;0;3300;49.25;47.38470459;8.527143478;261;Zürich;420217;4778.994655;32.45846789;491193;82932.7377;9.476740039
1662023789-1170;Dennlerstr. 24, 8047 Zürich, ZH;17.09.2022 11:44;2;46;0;1450;31.52;47.38156128;8.497806549;261;Zürich;420217;4778.994655;32.45846789;491193;82932.7377;252.3962319
1662023704-515;Jungholzstrasse 20, 8050 Zürich, ZH;17.09.2022 11:44;1.5;43;0;1740;40.47;47.41342545;8.544348717;261;Zürich;420217;4778.994655;32.45846789;491193;82932.7377;247.469155
1662023698-466;Waffenplatzstrasse 80, 8002 Zürich, ZH;17.09.2022 11:44;4;87;0;2767;31.8;47.35564804;8.52674675;261;Zürich;420217;4778.994655;32.45846789;491193;82932.7377;329.1384141
1662023720-643;Badenerstrasse 595, 8048 Zürich, ZH;17.09.2022 11:44;1;83;1;2800;33.73;47.38526535;8.493899345;261;Zürich;420217;4778.994655;32.45846789;491193;82932.7377;123.174532
1662023764-983;Am Wasser 161, 8049 Zürich, ZH;17.09.2022 11:44;2.5;42;0;3000;71.43;47.39943695;8.495816231;261;Zürich;420217;4778.994655;32.45846789;491193;82932.7377;407.4024613
1662023745-821;Ackerstrasse 55, 8005 Zürich, ZH;17.09.2022 11:44;1.5;25;0;1650;66;47.38333893;8.532877922;261;Zürich;420217;4778.994655;32.45846789;491193;82932.7377;121.1360881
1662023795-1207;Imbisbühlstrasse 108, 8049 Zürich, ZH;17.09.2022 11:44;3.5;131;0;3358;25.63;47.40587616;8.487546921;261;Zürich;420217;4778.994655;32.45846789;491193;82932.7377;465.384638
1662023692-409;8055 Zürich, ZH;17.09.2022 11:44;2.5;68;0;3125;45.96;47.3637886;8.509098053;261;Zürich;420217;4778.994655;32.45846789;491193;82932.7377;357.7941956
1662023745-836;Neudorfstr. 17, 8050 Zürich, ZH;17.09.2022 11:44;3.5;110;0;2850;25.91;47.41176224;8.547621727;261;Zürich;420217;4778.994655;32.45846789;491193;82932.7377;131.7436127
1662023789-1173;Gerhardstrasse 8, 8003 Zürich, ZH;17.09.2022 11:44;4;82;0;3490;42.56;47.37050247;8.523018837;261;Zürich;420217;4778.994655;32.45846789;491193;82932.7377;225.0460163
1662023783-1108;Karstlernstrasse 14, 8048 Zürich, ZH;17.09.2022 11:44;1;30;0;1430;47.67;47.38990402;8.478319168;261;Zürich;420217;4778.994655;32.45846789;491193;82932.7377;488.0383797
1662023767-995;Kreuzstrasse 55, 8008 Zürich, ZH;17.09.2022 11:44;1.5;41;0;2090;50.98;47.3645401;8.552120209;261;Zürich;420217;4778.994655;32.45846789;491193;82932.7377;130.5374186
1662023698-458;Scheffelstrasse 11, 8037 Zürich, ZH;17.09.2022 11:44;2.5;56;0;4390;78.39;47.39439011;8.529122353;261;Zürich;420217;4778.994655;32.45846789;491193;82932.7377;76.36840439
1662023742-804;Emil Oprecht-Str. 1, 8050 Zürich, ZH;17.09.2022 11:44;4.5;99;0;2660;26.87;47.41197968;8.541033745;261;Zürich;420217;4778.994655;32.45846789;491193;82932.7377;163.971253
1662023701-493;Herrligweg 9, 8048 Zürich, ZH;17.09.2022 11:44;2.5;60;0;2500;41.67;47.38989258;8.484477997;261;Zürich;420217;4778.994655;32.45846789;491193;82932.7377;233.8651918
1662023745-837;Elisabethenstrasse 28, 8004 Zürich, ZH;17.09.2022 11:44;3.5;70;0;4300;61.43;47.37369156;8.52188015;261;Zürich;420217;4778.994655;32.45846789;491193;82932.7377;166.3965452
1662023752-870;Spindelstrasse 12, 8041 Zürich, ZH;17.09.2022 11:44;3.5;95;0;4690;49.37;47.33975983;8.517643929;261;Zürich;420217;4778.994655;32.45846789;491193;82932.7377;431.019696
1662023730-709;Lehfrauenweg 10, 8053 Zürich, ZH;17.09.2022 11:44;2.5;51;0;2200;43.14;47.35964966;8.58997345;261;Zürich;420217;4778.994655;32.45846789;491193;82932.7377;304.5696523
1662023714-577;Bachtobelstrasse 23, 8045 Zürich, ZH;17.09.2022 11:44;2;51;0;1750;34.31;47.36090851;8.516180038;261;Zürich;420217;4778.994655;32.45846789;491193;82932.7377;134.395172
1662023786-1148;Uhlandstrasse 6, 8037 Zürich, ZH;17.09.2022 11:44;2.5;76;0;4600;60.53;47.3944664;8.528930664;261;Zürich;420217;4778.994655;32.45846789;491193;82932.7377;87.58157882
1662023793-1189;Herrligstrasse 36, 8048 Zürich, ZH;17.09.2022 11:44;2.5;56;0;1750;31.25;47.38893127;8.484622002;261;Zürich;420217;4778.994655;32.45846789;491193;82932.7377;165.2851637
1662023786-1142;Hubenstr. 14, 8057 Zürich, ZH;17.09.2022 11:44;4.5;91;0;2360;25.93;47.4035759;8.558526039;261;Zürich;420217;4778.994655;32.45846789;491193;82932.7377;901.4466183
1662023795-1209;Gustav-Gull-Platz 11, 8004 Zürich, ZH;17.09.2022 11:44;3.5;99;0;5150;52.02;47.37942505;8.531802177;261;Zürich;420217;4778.994655;32.45846789;491193;82932.7377;190.82489
1662023813-1363;Nelkenstrasse 20, 8006 Zürich, ZH;17.09.2022 11:44;3.5;69;0;3750;54.35;47.38184357;8.546545029;261;Zürich;420217;4778.994655;32.45846789;491193;82932.7377;131.6679506
1662023780-1104;Gustav-Gull-Platz 11, 8004 Zürich, ZH;17.09.2022 11:44;4.5;120;0;5211;43.42;47.37942505;8.531802177;261;Zürich;420217;4778.994655;32.45846789;491193;82932.7377;190.82489
1662023723-657;Dörflistrasse 112, 8050 Zürich, ZH;17.09.2022 11:44;2.5;50;0;2840;56.8;47.41082382;8.547832489;261;Zürich;420217;4778.994655;32.45846789;491193;82932.7377;91.00708381
1662023736-753;Schwandenholzstrasse 260, 8046 Zürich, ZH;17.09.2022 11:44;4.5;90;0;2420;26.89;47.42427444;8.519989967;261;Zürich;420217;4778.994655;32.45846789;491193;82932.7377;986.2691343
1662023739-788;Letzigraben 165, 8047 Zürich, ZH;17.09.2022 11:44;3.5;67;0;2670;39.85;47.37402725;8.4956007;261;Zürich;420217;4778.994655;32.45846789;491193;82932.7377;305.7476638
1662023795-1218;Maneggplatz 40, 8041 Zürich, ZH;17.09.2022 11:44;2.5;71;0;2140;30.14;47.33966827;8.520100594;261;Zürich;420217;4778.994655;32.45846789;491193;82932.7377;416.8522944
1662023745-833;Jonas-Furrer-Str. 21, 8046 Zürich, ZH;17.09.2022 11:44;2.5;68;0;1762;25.91;47.42037582;8.508238792;261;Zürich;420217;4778.994655;32.45846789;491193;82932.7377;5.14879488
1662023714-591;Schulhausstrasse 47, 8002 Zürich, ZH;17.09.2022 11:44;1;35;0;1750;50;47.36001968;8.528043747;261;Zürich;420217;4778.994655;32.45846789;491193;82932.7377;172.3260165
1662023793-1187;Hagenholzstrasse 66, 8050 Zürich, ZH;17.09.2022 11:44;1;111;1;2330;20.99;47.41331863;8.556182861;261;Zürich;420217;4778.994655;32.45846789;491193;82932.7377;668.305599
1662023767-999;Holderbachweg 8, 8046 Zürich, ZH;17.09.2022 11:44;3.5;90;0;2290;25.44;47.41841507;8.504903793;261;Zürich;420217;4778.994655;32.45846789;491193;82932.7377;79.80705281
1662023801-1268;Jungstrasse 18, 8050 Zürich, ZH;17.09.2022 11:44;2;54;0;1570;29.07;47.41508865;8.543237686;261;Zürich;420217;4778.994655;32.45846789;491193;82932.7377;273.3318109
1662023739-790;Badenerstrasse  250, 8004 Zürich, ZH;17.09.2022 11:44;3.5;74;1;4200;56.76;47.37598801;8.516037941;261;Zürich;420217;4778.994655;32.45846789;491193;82932.7377;108.2571857
1662023749-852;Altstetterstrasse 178, 8048 Zürich, ZH;17.09.2022 11:44;1.5;77;0;2450;31.82;47.38568497;8.485180855;261;Zürich;420217;4778.994655;32.45846789;491193;82932.7377;209.5293055
1662023786-1147;Etzelstrasse 6, 8038 Zürich, ZH;17.09.2022 11:44;3.5;75;0;4100;54.67;47.34442139;8.53067112;261;Zürich;420217;4778.994655;32.45846789;491193;82932.7377;5.969255685
1662023786-1145;Heliosstrasse 12, 8032 Zürich, ZH;17.09.2022 11:44;4.5;97;0;5810;59.9;47.36385345;8.559439659;261;Zürich;420217;4778.994655;32.45846789;491193;82932.7377;453.091251
1662023711-564;Baurstrasse 29, 8008 Zürich, ZH;17.09.2022 11:44;1.5;30;0;3790;126.33;47.3559227;8.554497719;261;Zürich;420217;4778.994655;32.45846789;491193;82932.7377;224.5931299
1662023798-1238;Feldblumenstrasse 10, 8048 Zürich, ZH;17.09.2022 11:44;4.5;125;0;4480;35.84;47.38809967;8.482545853;261;Zürich;420217;4778.994655;32.45846789;491193;82932.7377;228.5268013
1662023723-667;8001 Zürich, ZH;17.09.2022 11:44;4.5;167;0;24;0.14;47.36893463;8.541392326;261;Zürich;420217;4778.994655;32.45846789;491193;82932.7377;7.371820841
1662023810-1333;Maneggplatz 14, 8041 Zürich, ZH;17.09.2022 11:44;3.5;91;0;2950;32.42;47.34020615;8.520726204;261;Zürich;420217;4778.994655;32.45846789;491193;82932.7377;486.1000325
1662023692-431;8057 Zürich, ZH;17.09.2022 11:44;3;74;0;2369;32.01;47.39358521;8.539556503;261;Zürich;420217;4778.994655;32.45846789;491193;82932.7377;142.9543313
1662023810-1338;Feldstrasse 40, 8004 Zürich, ZH;17.09.2022 11:44;1.5;51;0;1780;34.9;47.37585449;8.521323204;261;Zürich;420217;4778.994655;32.45846789;491193;82932.7377;150.6598688
1662023698-472;Badenerstrasse 595, 8048 Zürich, ZH;17.09.2022 11:44;4;105;0;3840;36.57;47.38526535;8.493899345;261;Zürich;420217;4778.994655;32.45846789;491193;82932.7377;123.174532
1662023801-1260;am Oeschbrig 5, 8053 Zürich, ZH;17.09.2022 11:44;4.5;98;0;3565;36.38;47.35725784;8.599966049;261;Zürich;420217;4778.994655;32.45846789;491193;82932.7377;514.186199
1662023739-786;Letzigraben 165, 8047 Zürich, ZH;17.09.2022 11:44;4.5;96;0;3690;38.44;47.37402725;8.4956007;261;Zürich;420217;4778.994655;32.45846789;491193;82932.7377;305.7476638
1662023761-943;Am Wasser 161, 8049 Zürich, ZH;17.09.2022 11:44;1.5;22;0;1750;79.55;47.39943695;8.495816231;261;Zürich;420217;4778.994655;32.45846789;491193;82932.7377;407.4024613
1662023739-785;Letzigraben 165, 8047 Zürich, ZH;17.09.2022 11:44;2.5;58;0;2390;41.21;47.37402725;8.4956007;261;Zürich;420217;4778.994655;32.45846789;491193;82932.7377;305.7476638
1662023793-1194;Mühlebachstrasse 76, 8008 Zürich, ZH;17.09.2022 11:44;4;115;0;3640;31.65;47.36259079;8.553037643;261;Zürich;420217;4778.994655;32.45846789;491193;82932.7377;226.2929265
1662023761-949;Soodstrasse 90, 8041 Zürich, ZH;17.09.2022 11:44;1.5;161;0;2745;17.05;47.3256073;8.518198967;261;Zürich;420217;4778.994655;32.45846789;491193;82932.7377;290.4669994
1662023795-1206;Bühlstrasse 45C, 8055 Zürich, ZH;17.09.2022 11:44;3.5;103;0;2870;27.86;47.36454773;8.515075684;261;Zürich;420217;4778.994655;32.45846789;491193;82932.7377;308.8287721
1662023714-585;Riedenhaldenstrasse 254, 8046 Zürich, ZH;17.09.2022 11:44;3;66;0;2090;31.67;47.41985703;8.510608673;261;Zürich;420217;4778.994655;32.45846789;491193;82932.7377;190.9802976
1662023755-907;Oerlikonerstrasse 87, 8057 Zürich, ZH;17.09.2022 11:44;3.5;84;0;2950;35.12;47.40504074;8.54621315;261;Zürich;420217;4778.994655;32.45846789;491193;82932.7377;167.0857124
1662023714-579;Bachmattstr. 59, 8048 Zürich, ZH;17.09.2022 11:44;2.5;71;0;2300;32.39;47.3890419;8.483692169;261;Zürich;420217;4778.994655;32.45846789;491193;82932.7377;212.3682202
1662023689-385;8053 Zürich, ZH;17.09.2022 11:44;4.5;171;1;7900;46.2;47.35861588;8.578998566;261;Zürich;420217;4778.994655;32.45846789;491193;82932.7377;499.5722125
1662023736-756;Birmensdorferstrasse 598, 8055 Zürich, ZH;17.09.2022 11:44;3.5;97;0;3595;37.06;47.36793518;8.488553047;261;Zürich;420217;4778.994655;32.45846789;491193;82932.7377;369.0853957
1662023752-869;Schrennengasse 14, 8003 Zürich, ZH;17.09.2022 11:44;2.5;45;0;3050;67.78;47.36940384;8.516093254;261;Zürich;420217;4778.994655;32.45846789;491193;82932.7377;155.4463071
1662023704-528;Redingstrasse 3, 8038 Zürich, ZH;17.09.2022 11:44;2.5;60;0;1920;32;47.34896088;8.526168823;261;Zürich;420217;4778.994655;32.45846789;491193;82932.7377;549.817212
1662023711-559;Birmensdorferstrasse 596, 8055 Zürich, ZH;17.09.2022 11:44;1.5;55;0;2195;39.91;47.36790848;8.488808632;261;Zürich;420217;4778.994655;32.45846789;491193;82932.7377;357.8306111
1662023749-843;Ottikerstrasse 11, 8006 Zürich, ZH;17.09.2022 11:44;1.5;52;0;2520;48.46;47.38570404;8.542648315;261;Zürich;420217;4778.994655;32.45846789;491193;82932.7377;453.6715917
1662023780-1102;Zeltweg 68, 8032 Zürich, ZH;17.09.2022 11:44;3.5;78;0;2461;31.55;47.36709213;8.552876472;261;Zürich;420217;4778.994655;32.45846789;491193;82932.7377;287.0658775
1662023804-1280;Hallenstrasse 8, 8008 Zürich, ZH;17.09.2022 11:44;1;23;0;1700;73.91;47.36317825;8.548668861;261;Zürich;420217;4778.994655;32.45846789;491193;82932.7377;94.61779045
1662023701-489;8057 Zürich, ZH;17.09.2022 11:44;4;85;0;3840;45.18;47.39358521;8.539556503;261;Zürich;420217;4778.994655;32.45846789;491193;82932.7377;142.9543313
1662023801-1267;Färberstrasse 27, 8008 Zürich, ZH;17.09.2022 11:44;2.5;77;0;5250;68.18;47.36214066;8.549431801;261;Zürich;420217;4778.994655;32.45846789;491193;82932.7377;118.7786633
1662023780-1094;Stampfenbachplatz 4, 8006 Zürich, ZH;17.09.2022 11:44;4.5;134;0;4290;32.01;47.38040161;8.542487144;261;Zürich;420217;4778.994655;32.45846789;491193;82932.7377;282.037954
1662023764-975;Wehrenbachhalde 39, 8053 Zürich, ZH;17.09.2022 11:44;6;153;0;4240;27.71;47.35622787;8.580233574;261;Zürich;420217;4778.994655;32.45846789;491193;82932.7377;486.0431407
1662023761-948;Seefeldstr. 168, 8008 Zürich, ZH;17.09.2022 11:44;4.5;89;0;4540;51.01;47.35554504;8.556349754;261;Zürich;420217;4778.994655;32.45846789;491193;82932.7377;295.7654712
1662023749-859;Käferholzstrasse 60, 8057 Zürich, ZH;17.09.2022 11:44;4.5;117;0;3980;34.02;47.40255356;8.532090187;261;Zürich;420217;4778.994655;32.45846789;491193;82932.7377;411.9209697
1662023686-383;Hinterbergstrasse 57, 8044 Zürich, ZH;17.09.2022 11:44;2.5;62;0;2475;39.92;47.38201523;8.556857109;261;Zürich;420217;4778.994655;32.45846789;491193;82932.7377;352.7132498
1662023804-1287;Höschgasse 46, 8008 Zürich, ZH;17.09.2022 11:44;3;78;0;3700;47.44;47.35751343;8.554138184;261;Zürich;420217;4778.994655;32.45846789;491193;82932.7377;61.03984266
1662023733-739;Imbisbühlstrasse 110, 8049 Zürich, ZH;17.09.2022 11:44;3.5;131;1;3190;24.35;47.40596771;8.487181664;261;Zürich;420217;4778.994655;32.45846789;491193;82932.7377;437.9281051
1662023807-1306;Feldstrasse 39, 8004 Zürich, ZH;17.09.2022 11:44;3;78;0;2500;32.05;47.37620926;8.521111488;261;Zürich;420217;4778.994655;32.45846789;491193;82932.7377;188.7439768
1662023786-1146;Beckhammer 19, 8057 Zürich, ZH;17.09.2022 11:44;4.5;85;0;5190;61.06;47.4010582;8.54121685;261;Zürich;420217;4778.994655;32.45846789;491193;82932.7377;595.6288936
1662023761-939;Grosswiesenstrasse 20, 8051 Zürich, ZH;17.09.2022 11:44;3;49;0;1440;29.39;47.40337372;8.583436012;261;Zürich;420217;4778.994655;32.45846789;491193;82932.7377;497.9626039
1662023752-882;Soodstrasse 90, 8041 Zürich, ZH;17.09.2022 11:44;2.5;75;0;2330;31.07;47.3256073;8.518198967;261;Zürich;420217;4778.994655;32.45846789;491193;82932.7377;290.4669994
1662023711-555;Balberstrasse 68, 8038 Zürich, ZH;17.09.2022 11:44;4;67;0;1990;29.7;47.33802795;8.526716232;261;Zürich;420217;4778.994655;32.45846789;491193;82932.7377;367.8394315
1662023780-1103;Am Wasser 161, 8049 Zürich, ZH;17.09.2022 11:44;2.5;42;0;3000;71.43;47.39943695;8.495816231;261;Zürich;420217;4778.994655;32.45846789;491193;82932.7377;407.4024613
1662023761-946;Am Wasser 161, 8049 Zürich, ZH;17.09.2022 11:44;1.5;22;0;1750;79.55;47.39943695;8.495816231;261;Zürich;420217;4778.994655;32.45846789;491193;82932.7377;407.4024613
1662023798-1237;Im Holzerhurd 60, 8046 Zürich, ZH;17.09.2022 11:44;1;38;0;900;23.68;47.42334747;8.496809006;261;Zürich;420217;4778.994655;32.45846789;491193;82932.7377;253.8942839
1662023695-454;Rosmarinweg 3, 8057 Zürich, ZH;17.09.2022 11:44;2.5;64;0;1650;25.78;47.4032135;8.550189972;261;Zürich;420217;4778.994655;32.45846789;491193;82932.7377;196.7515138
1662023774-1047;Hohenklingenstrasse 45, 8049 Zürich, ZH;17.09.2022 11:44;2.5;48;0;2030;42.29;47.40235138;8.490530014;261;Zürich;420217;4778.994655;32.45846789;491193;82932.7377;548.7173278
1662023755-898;Höschgasse 76, 8008 Zürich, ZH;17.09.2022 11:44;2.5;60;0;2790;46.5;47.35784912;8.556351662;261;Zürich;420217;4778.994655;32.45846789;491193;82932.7377;129.2325344
1662023758-919;Baslerstrasse 31, 8048 Zürich, ZH;17.09.2022 11:44;4.5;98;0;2795;28.52;47.38403702;8.502075195;261;Zürich;420217;4778.994655;32.45846789;491193;82932.7377;288.3060167
1662023793-1192;Neunbrunnenstr. 153, 8050 Zürich, ZH;17.09.2022 11:44;2.5;66;0;1884;28.55;47.41574478;8.532227516;261;Zürich;420217;4778.994655;32.45846789;491193;82932.7377;563.8033711
1662023727-688;Sihlhallenstrasse 28, 8004 Zürich, ZH;17.09.2022 11:44;3.5;70;0;2640;37.71;47.38012314;8.526421547;261;Zürich;420217;4778.994655;32.45846789;491193;82932.7377;338.5685963
1662023761-942;Badenerstrasse 250, 8004 Zürich, ZH;17.09.2022 11:44;1.5;25;0;2100;84;47.37598801;8.516037941;261;Zürich;420217;4778.994655;32.45846789;491193;82932.7377;108.2571857
1662023793-1184;Dörflistrasse 112, 8050 Zürich, ZH;17.09.2022 11:44;3.5;65;0;3330;51.23;47.41082382;8.547832489;261;Zürich;420217;4778.994655;32.45846789;491193;82932.7377;91.00708381
1662023698-469;Klosbachstrasse 44, 8032 Zürich, ZH;17.09.2022 11:44;2.5;54;0;3800;70.37;47.36623764;8.557329178;261;Zürich;420217;4778.994655;32.45846789;491193;82932.7377;272.0746108
1662023730-700;Birchstrasse 98, 8050 Zürich, ZH;17.09.2022 11:44;1;64;1;2390;37.34;47.40781403;8.536985397;261;Zürich;420217;4778.994655;32.45846789;491193;82932.7377;516.455676
1662023692-415;Badenerstrasse 701, 8048 Zürich, ZH;17.09.2022 11:44;2.5;59;0;2480;42.03;47.38793945;8.483872414;261;Zürich;420217;4778.994655;32.45846789;491193;82932.7377;127.5325628
1662023714-580;Wehntalerstrasse 402, 8046 Zürich, ZH;17.09.2022 11:44;3;64;0;2370;37.03;47.41493225;8.516685486;261;Zürich;420217;4778.994655;32.45846789;491193;82932.7377;852.5834272
1662023764-973;Forchstrasse 261, 8032 Zürich, ZH;17.09.2022 11:44;1.5;65;1;2470;38;47.36472321;8.555101395;261;Zürich;420217;4778.994655;32.45846789;491193;82932.7377;47.09764616
1662023745-835;Im Heuried 52, 8055 Zürich, ZH;17.09.2022 11:44;2.5;56;0;1870;33.39;47.36848831;8.508621216;261;Zürich;420217;4778.994655;32.45846789;491193;82932.7377;194.7669465
1662023783-1112;Bachmattstrasse 66, 8048 Zürich, ZH;17.09.2022 11:44;3.5;70;0;2190;31.29;47.3890686;8.483251572;261;Zürich;420217;4778.994655;32.45846789;491193;82932.7377;236.8670699
1662023742-807;Langfurrenstrasse 5c, 8623 Wetzikon ZH, ZH;17.09.2022 11:44;5.5;115;0;2860;24.87;47.32863235;8.810400009;121;Wetzikon (ZH);24990;1486.61511;25.99439776;14163;68356.14277;308.1761647
1662023755-900;8620 Wetzikon ZH, ZH;17.09.2022 11:44;3.5;123;1;3350;27.24;47.31372833;8.828516006;121;Wetzikon (ZH);24990;1486.61511;25.99439776;14163;68356.14277;1126.518913
1662023793-1186;Rosenstrasse 1, 8623 Wetzikon ZH, ZH;17.09.2022 11:44;4.5;109;0;2390;21.93;47.33300018;8.80818367;121;Wetzikon (ZH);24990;1486.61511;25.99439776;14163;68356.14277;169.7866569
1662023739-781;Langfurrenstrasse 5c, 8623 Wetzikon ZH, ZH;17.09.2022 11:44;1.5;38;0;1185;31.18;47.32863235;8.810400009;121;Wetzikon (ZH);24990;1486.61511;25.99439776;14163;68356.14277;308.1761647
1662023767-1004;Spitalstr. 157, 8620 Wetzikon ZH, ZH;17.09.2022 11:44;5.5;115;0;2120;18.43;47.32657242;8.808747292;121;Wetzikon (ZH);24990;1486.61511;25.99439776;14163;68356.14277;522.8996445
1662023695-437;Pappelnstr. 14, 8620 Wetzikon ZH, ZH;17.09.2022 11:44;2.5;86;0;1660;19.3;47.3285141;8.800927162;121;Wetzikon (ZH);24990;1486.61511;25.99439776;14163;68356.14277;100.7159427
1662023752-865;Langfurrenstrasse 5a, 8623 Wetzikon ZH, ZH;17.09.2022 11:44;3.5;90;0;2385;26.5;47.32884598;8.809763908;121;Wetzikon (ZH);24990;1486.61511;25.99439776;14163;68356.14277;273.4176162
1662023698-478;Kirchgasse 4, 8620 Wetzikon ZH, ZH;17.09.2022 11:44;2.5;76;0;1760;23.16;47.32634354;8.797727585;121;Wetzikon (ZH);24990;1486.61511;25.99439776;14163;68356.14277;15.69588117
1662023739-773;Langfurrenstrasse 5b, 8623 Wetzikon ZH, ZH;17.09.2022 11:44;2.5;60;0;1720;28.67;47.32872391;8.810142517;121;Wetzikon (ZH);24990;1486.61511;25.99439776;14163;68356.14277;292.8767276
1662023689-388;8620 Wetzikon ZH, ZH;17.09.2022 11:44;3.5;120;0;2400;20;47.31372833;8.828516006;121;Wetzikon (ZH);24990;1486.61511;25.99439776;14163;68356.14277;1126.518913
1662023807-1305;Weststrasse 66, 8620 Wetzikon ZH, ZH;17.09.2022 11:44;2.5;60;0;1540;25.67;47.32967377;8.79671669;121;Wetzikon (ZH);24990;1486.61511;25.99439776;14163;68356.14277;374.5939064
1662023767-1005;Bahnhofstrasse 117, 8620 Wetzikon ZH, ZH;17.09.2022 11:44;2.5;73;0;1860;25.48;47.32510757;8.798135757;121;Wetzikon (ZH);24990;1486.61511;25.99439776;14163;68356.14277;145.6534037
1662023701-485;Schneggenstr. 24, 8620 Wetzikon ZH, ZH;17.09.2022 11:44;3.5;72;0;1564;21.72;47.32073593;8.800229073;121;Wetzikon (ZH);24990;1486.61511;25.99439776;14163;68356.14277;656.7873802
1662023764-970;Guyer-Zeller-Strasse 1, 8620 Wetzikon ZH, ZH;17.09.2022 11:44;3.5;95;0;2000;21.05;47.31469727;8.793615341;121;Wetzikon (ZH);24990;1486.61511;25.99439776;14163;68356.14277;296.8370881
1662023761-959;Weststrasse 68, 8620 Wetzikon ZH, ZH;17.09.2022 11:44;2.5;55;0;1470;26.73;47.32984543;8.796719551;121;Wetzikon (ZH);24990;1486.61511;25.99439776;14163;68356.14277;307.7725942
1662023801-1264;Messikommerstrasse 37, 8620 Wetzikon ZH, ZH;17.09.2022 11:44;4.5;90;0;1870;20.78;47.32208252;8.792054176;121;Wetzikon (ZH);24990;1486.61511;25.99439776;14163;68356.14277;240.9756791
1662023742-805;Zelglistrasse 11A, 8620 Wetzikon ZH, ZH;17.09.2022 11:44;3.5;100;0;2230;22.3;47.33001328;8.78608799;121;Wetzikon (ZH);24990;1486.61511;25.99439776;14163;68356.14277;340.3603804
1662023704-523;Bahnhofstrasse 148, 8620 Wetzikon ZH, ZH;17.09.2022 11:44;3;138;0;2190;15.87;47.32648849;8.798989296;121;Wetzikon (ZH);24990;1486.61511;25.99439776;14163;68356.14277;112.1364204
1662023742-816;Usterstrasse 44, 8620 Wetzikon ZH, ZH;17.09.2022 11:44;1.5;90;1;1890;21;47.3272438;8.79475975;121;Wetzikon (ZH);24990;1486.61511;25.99439776;14163;68356.14277;231.1593823
1662023749-858;Blaketen 6, 8620 Wetzikon ZH, ZH;17.09.2022 11:44;5.5;123;0;2550;20.73;47.32310867;8.799917221;121;Wetzikon (ZH);24990;1486.61511;25.99439776;14163;68356.14277;403.2575343
1662023804-1290;Sandbuckweg 5A, 8157 Dielsdorf, ZH;17.09.2022 11:44;3.5;74;0;2165;29.26;47.47749329;8.456284523;86;Dielsdorf;5966;1016.354344;31.84713376;4370;75514;466.6978595
1662023701-499;Heugasse 2, 8157 Dielsdorf, ZH;17.09.2022 11:44;3;65;0;1860;28.62;47.48674393;8.452263832;86;Dielsdorf;5966;1016.354344;31.84713376;4370;75514;611.0141767
1662023695-438;Altmoosstrasse 17, 8157 Dielsdorf, ZH;17.09.2022 11:44;3.5;120;0;2350;19.58;47.47696686;8.454099655;86;Dielsdorf;5966;1016.354344;31.84713376;4370;75514;488.2973335
1662023786-1133;Krummibuckweg 9, 8157 Dielsdorf, ZH;17.09.2022 11:44;3.5;75;0;1910;25.47;47.48097229;8.460487366;86;Dielsdorf;5966;1016.354344;31.84713376;4370;75514;239.8342401
1662023745-839;Mühlestrasse 1, 8157 Dielsdorf, ZH;17.09.2022 11:44;4.5;108;0;2509;23.23;47.48301697;8.453057289;86;Dielsdorf;5966;1016.354344;31.84713376;4370;75514;194.3480067
1662023692-410;8157 Dielsdorf, ZH;17.09.2022 11:44;4.5;99;0;2000;20.2;47.48334122;8.461685181;86;Dielsdorf;5966;1016.354344;31.84713376;4370;75514;380.8189025
1662023758-918;Krummibuckweg 6, 8157 Dielsdorf, ZH;17.09.2022 11:44;3.5;88;0;1840;20.91;47.48119354;8.459864616;86;Dielsdorf;5966;1016.354344;31.84713376;4370;75514;292.6956451
1662023704-512;Regensbergstrasse 8, 8157 Dielsdorf, ZH;17.09.2022 11:44;4.5;95;0;1950;20.53;47.48210144;8.452489853;86;Dielsdorf;5966;1016.354344;31.84713376;4370;75514;132.4320161
1662023707-544;Ifangweg 1, 8610 Uster, ZH;17.09.2022 11:44;2;47;0;1400;29.79;47.35888672;8.713795662;198;Uster;35007;1228.746929;23.00968378;17237;78620.73876;414.2377654
1662023786-1135;Unterbühlenstr. 3B, 8610 Uster, ZH;17.09.2022 11:44;3.5;72;0;1690;23.47;47.34423447;8.707965851;198;Uster;35007;1228.746929;23.00968378;17237;78620.73876;476.1484806
1662023764-971;Ifangweg 8, 8610 Uster, ZH;17.09.2022 11:44;3;68;0;1315;19.34;47.35796356;8.714289665;198;Uster;35007;1228.746929;23.00968378;17237;78620.73876;321.5295452
1662023736-766;Steigstr. 3, 8610 Uster, ZH;17.09.2022 11:44;4.5;106;0;2670;25.19;47.34431076;8.730061531;198;Uster;35007;1228.746929;23.00968378;17237;78620.73876;467.3397886
1662023793-1198;Poststr. 3, 8610 Uster, ZH;17.09.2022 11:44;4.5;132;0;2980;22.58;47.34947968;8.7182827;198;Uster;35007;1228.746929;23.00968378;17237;78620.73876;151.9494859
1662023786-1129;Meierackerstr. 4, 8610 Uster, ZH;17.09.2022 11:44;3.5;98;0;2190;22.35;47.36004257;8.716106415;198;Uster;35007;1228.746929;23.00968378;17237;78620.73876;591.2965349
1662023745-828;Gerichtsstrasse 5, 8610 Uster, ZH;17.09.2022 11:44;1;134;1;3200;23.88;47.35003281;8.716350555;198;Uster;35007;1228.746929;23.00968378;17237;78620.73876;48.2616004
1662023793-1178;Florastr. 14, 8610 Uster, ZH;17.09.2022 11:44;3.5;112;0;2150;19.2;47.34764862;8.719614983;198;Uster;35007;1228.746929;23.00968378;17237;78620.73876;94.69989836
1662023761-957;Oberlandstr. 75, 8610 Uster, ZH;17.09.2022 11:44;3.5;92;0;1964;21.35;47.35482407;8.71586132;198;Uster;35007;1228.746929;23.00968378;17237;78620.73876;179.1253448
1662023707-551;Ifangweg 7, 8610 Uster, ZH;17.09.2022 11:44;2;47;0;1425;30.32;47.35850906;8.714330673;198;Uster;35007;1228.746929;23.00968378;17237;78620.73876;380.7739467
1662023789-1155;Brunnenwiesenstr. 40, 8610 Uster, ZH;17.09.2022 11:44;3.5;76;0;1875;24.67;47.35472488;8.717199326;198;Uster;35007;1228.746929;23.00968378;17237;78620.73876;350.7596681
1662023758-935;Aathalstrasse 34, 8610 Uster, ZH;17.09.2022 11:44;1;147;1;2450;16.67;47.34529877;8.729885101;198;Uster;35007;1228.746929;23.00968378;17237;78620.73876;563.6606835
1662023780-1082;Wermatswilerstrasse 91, 8610 Uster, ZH;17.09.2022 11:44;4.5;98;0;2100;21.43;47.35652542;8.729662895;198;Uster;35007;1228.746929;23.00968378;17237;78620.73876;944.074114
1662023767-1002;Breitigasse 5, 8610 Uster, ZH;17.09.2022 11:44;3.5;73;0;1800;24.66;47.34422302;8.734959602;198;Uster;35007;1228.746929;23.00968378;17237;78620.73876;705.3888817
1662023758-925;Stöcklerstr. 6, 8610 Uster, ZH;17.09.2022 11:44;3;69;0;1655;23.99;47.34308243;8.734877586;198;Uster;35007;1228.746929;23.00968378;17237;78620.73876;634.2785436
1662023717-618;Zeltweg 23, 8610 Uster, ZH;17.09.2022 11:44;3;62;0;1690;27.26;47.34798813;8.709195137;198;Uster;35007;1228.746929;23.00968378;17237;78620.73876;501.109463
1662023795-1201;Oberlandstr. 75, 8610 Uster, ZH;17.09.2022 11:44;3.5;92;0;2030;22.07;47.35482407;8.71586132;198;Uster;35007;1228.746929;23.00968378;17237;78620.73876;179.1253448
1662023767-1000;Oberlandstr. 75, 8610 Uster, ZH;17.09.2022 11:44;3.5;92;0;2020;21.96;47.35482407;8.71586132;198;Uster;35007;1228.746929;23.00968378;17237;78620.73876;179.1253448
1662023795-1224;Alte Blindenholzstrasse 3, 8616 Riedikon, ZH;17.09.2022 11:44;4.5;107;0;1930;18.04;47.33308029;8.712552071;198;Uster;35007;1228.746929;23.00968378;17237;78620.73876;967.4936417
1662023720-625;Seestrasse 139, 8610 Uster, ZH;17.09.2022 11:44;2.5;77;0;1990;25.84;47.34542084;8.697589874;198;Uster;35007;1228.746929;23.00968378;17237;78620.73876;348.4748084
1662023807-1297;Ifangweg 11, 8610 Uster, ZH;17.09.2022 11:44;2.5;51;0;1500;29.41;47.35829926;8.715127945;198;Uster;35007;1228.746929;23.00968378;17237;78620.73876;383.9697664
1662023807-1299;Archstrasse 13, 8610 Uster, ZH;17.09.2022 11:44;3;67;0;1660;24.78;47.3439827;8.731561661;198;Uster;35007;1228.746929;23.00968378;17237;78620.73876;497.903384
1662023758-917;Bankstrasse 27, 8610 Uster, ZH;17.09.2022 11:44;3.5;84;0;2060;24.52;47.35177612;8.715166092;198;Uster;35007;1228.746929;23.00968378;17237;78620.73876;73.81177886
1662023758-924;Breitigasse 9, 8610 Uster, ZH;17.09.2022 11:44;3.5;74;0;1800;24.32;47.34457016;8.734555244;198;Uster;35007;1228.746929;23.00968378;17237;78620.73876;704.7743279
1662023786-1140;Gschwaderstrasse 40, 8610 Uster, ZH;17.09.2022 11:44;2.5;56;0;1320;23.57;47.35831833;8.713147163;198;Uster;35007;1228.746929;23.00968378;17237;78620.73876;347.391546
1662023758-929;Frohbergstr. 7, 8162 Steinmaur, ZH;17.09.2022 11:44;4.5;97;0;1770;18.25;47.48908615;8.448234558;101;Steinmaur;3609;384.3450479;27.12662787;824;76289.40871;958.3446841
1662023727-685;8306 Brüttisellen, ZH;17.09.2022 11:44;4.5;124;0;4460;35.97;47.42464066;8.633165359;200;Wangen-Brüttisellen;7967;1005.934343;27.32521652;5859;83725.31758;255.9089181
1662023736-749;Eichstrasse 1, 8306 Brüttisellen, ZH;17.09.2022 11:44;3.5;68;0;1610;23.68;47.42432022;8.631151199;200;Wangen-Brüttisellen;7967;1005.934343;27.32521652;5859;83725.31758;104.1024366
1662023733-725;Wülflingerstrasse 48, 8400 Winterthur, ZH;17.09.2022 11:44;2.5;55;0;1490;27.09;47.50653458;8.714888573;230;Winterthur;113173;1662.597326;24.53500393;73339;70118.99692;111.4006121
1662023733-731;St. Gallerstrasse 42d, 8400 Winterthur, ZH;17.09.2022 11:44;3.5;86;0;2420;28.14;47.49749756;8.738823891;230;Winterthur;113173;1662.597326;24.53500393;73339;70118.99692;317.8736593
1662023777-1057;Wartstr. 28, 8400 Winterthur, ZH;17.09.2022 11:44;1;26;0;1145;44.04;47.50136185;8.720966339;230;Winterthur;113173;1662.597326;24.53500393;73339;70118.99692;92.26477232
1662023736-746;Landvogt-Waser-Strasse 67, 8405 Winterthur, ZH;17.09.2022 11:44;2.5;62;0;1500;24.19;47.48586655;8.76594162;230;Winterthur;113173;1662.597326;24.53500393;73339;70118.99692;220.880961
1662023739-784;Wingertlistrasse 9, 8405 Winterthur, ZH;17.09.2022 11:44;3.5;70;0;1690;24.14;47.49017334;8.761757851;230;Winterthur;113173;1662.597326;24.53500393;73339;70118.99692;548.0859407
1662023739-775;Hulfteggstrasse 16, 8400 Winterthur, ZH;17.09.2022 11:44;4;76;0;1665;21.91;47.49134827;8.753072739;230;Winterthur;113173;1662.597326;24.53500393;73339;70118.99692;374.1017589
1662023774-1040;Seuzacherstr. 9a, 8400 Winterthur, ZH;17.09.2022 11:44;2.5;66;1;1900;28.79;47.51836014;8.720631599;230;Winterthur;113173;1662.597326;24.53500393;73339;70118.99692;55.73024752
1662023723-659;Oberseenerstrasse 77, 8405 Winterthur, ZH;17.09.2022 11:44;4.5;121;1;2720;22.48;47.48025131;8.771097183;230;Winterthur;113173;1662.597326;24.53500393;73339;70118.99692;808.5943084
1662023752-873;Scheideggstrasse 8, 8400 Winterthur, ZH;17.09.2022 11:44;2;54;0;1450;26.85;47.49159622;8.750418663;230;Winterthur;113173;1662.597326;24.53500393;73339;70118.99692;199.1692313
1662023742-795;Bollstrasse 64, 8405 Winterthur, ZH;17.09.2022 11:44;3.5;89;0;2350;26.4;47.48073196;8.759271622;230;Winterthur;113173;1662.597326;24.53500393;73339;70118.99692;570.189086
1662023774-1054;Scherrerstrasse 8, 8400 Winterthur, ZH;17.09.2022 11:44;3;67;0;1990;29.7;47.49733353;8.742336273;230;Winterthur;113173;1662.597326;24.53500393;73339;70118.99692;320.6077769
1662023698-475;Zürcherstrasse 57, 8406 Winterthur, ZH;17.09.2022 11:44;1;24;0;1350;56.25;47.49454498;8.711798668;230;Winterthur;113173;1662.597326;24.53500393;73339;70118.99692;80.17522635
1662023736-760;Tösstalstrasse 174, 8400 Winterthur, ZH;17.09.2022 11:44;3;62;0;1481;23.89;47.48874664;8.751196861;230;Winterthur;113173;1662.597326;24.53500393;73339;70118.99692;302.3895347
1662023813-1351;Bollstrasse 66, 8405 Winterthur, ZH;17.09.2022 11:44;3.5;88;0;2345;26.65;47.48073578;8.759693146;230;Winterthur;113173;1662.597326;24.53500393;73339;70118.99692;555.9455612
1662023749-855;Pionierstr. 22, 8400 Winterthur, ZH;17.09.2022 11:44;1;89;0;1900;21.35;47.49772263;8.719924927;230;Winterthur;113173;1662.597326;24.53500393;73339;70118.99692;130.2913175
1662023752-888;Zürcherstrasse 54, 8406 Winterthur, ZH;17.09.2022 11:44;3.5;103;0;2240;21.75;47.49507141;8.711730003;230;Winterthur;113173;1662.597326;24.53500393;73339;70118.99692;80.26638329
1662023761-953;Jägerstrasse 59, 8406 Winterthur, ZH;17.09.2022 11:44;2.5;61;0;1930;31.64;47.49499512;8.713829041;230;Winterthur;113173;1662.597326;24.53500393;73339;70118.99692;82.46380405
1662023758-914;Endlikerstrasse 106, 8400 Winterthur, ZH;17.09.2022 11:44;3.5;97;1;2110;21.75;47.48758316;8.75232029;230;Winterthur;113173;1662.597326;24.53500393;73339;70118.99692;453.8072881
1662023804-1273;Waldeggstrasse 8, 8405 Winterthur, ZH;17.09.2022 11:44;1.5;120;1;1700;14.17;47.48252487;8.759597778;230;Winterthur;113173;1662.597326;24.53500393;73339;70118.99692;388.0786319
1662023698-459;General-Guisan-Strasse 25, 8400 Winterthur, ZH;17.09.2022 11:44;3.5;68;0;2280;33.53;47.49905014;8.733027458;230;Winterthur;113173;1662.597326;24.53500393;73339;70118.99692;104.8522057
1662023786-1138;Gottfried Keller-Strasse 77, 8400 Winterthur, ZH;17.09.2022 11:44;3.5;72;0;1750;24.31;47.50571823;8.730652809;230;Winterthur;113173;1662.597326;24.53500393;73339;70118.99692;630.1714557
1662023761-938;Landvogt-Waser-Strasse 69, 8405 Winterthur, ZH;17.09.2022 11:44;4.5;106;1;2470;23.3;47.48572922;8.766179085;230;Winterthur;113173;1662.597326;24.53500393;73339;70118.99692;233.2113794
1662023736-748;Giesserstrasse 15, 8406 Winterthur, ZH;17.09.2022 11:44;3;64;0;1320;20.62;47.49040604;8.714092255;230;Winterthur;113173;1662.597326;24.53500393;73339;70118.99692;506.0734227
1662023720-646;Wülflingerstrasse 151a, 8408 Winterthur, ZH;17.09.2022 11:44;4.5;119;0;2583;21.71;47.50883865;8.704948425;230;Winterthur;113173;1662.597326;24.53500393;73339;70118.99692;589.3818194
1662023707-531;Zürcherstrasse 57, 8406 Winterthur, ZH;17.09.2022 11:44;1;28;0;1350;48.21;47.49454498;8.711798668;230;Winterthur;113173;1662.597326;24.53500393;73339;70118.99692;80.17522635
1662023717-615;Florenstrasse 56, 8405 Winterthur, ZH;17.09.2022 11:44;2;40;0;1490;37.25;47.48488998;8.773792267;230;Winterthur;113173;1662.597326;24.53500393;73339;70118.99692;799.1921613
1662023771-1015;Heiniweg 16, 8404 Winterthur, ZH;17.09.2022 11:44;3.5;76;0;1520;20;47.51916885;8.764608383;230;Winterthur;113173;1662.597326;24.53500393;73339;70118.99692;1502.628349
1662023795-1211;Agnesstrasse 2, 8406 Winterthur, ZH;17.09.2022 11:44;4;82;0;2130;25.98;47.49472046;8.714877129;230;Winterthur;113173;1662.597326;24.53500393;73339;70118.99692;161.0008051
1662023804-1293;Alte Römerstrasse 24, 8404 Winterthur, ZH;17.09.2022 11:44;4.5;115;0;3220;28;47.50394821;8.748668671;230;Winterthur;113173;1662.597326;24.53500393;73339;70118.99692;203.9575886
1662023761-960;Sulzbergstrasse 8, 8400 Winterthur, ZH;17.09.2022 11:44;3;60;0;1610;26.83;47.50327301;8.729370117;230;Winterthur;113173;1662.597326;24.53500393;73339;70118.99692;400.4271928
1662023745-829;Rychenbergstr. 61, 8400 Winterthur, ZH;17.09.2022 11:44;2.5;71;0;2070;29.15;47.5085144;8.729952812;230;Winterthur;113173;1662.597326;24.53500393;73339;70118.99692;945.4699601
1662023736-745;Landvogt-Waser-Strasse 69, 8405 Winterthur, ZH;17.09.2022 11:44;2.5;62;0;1640;26.45;47.48572922;8.766179085;230;Winterthur;113173;1662.597326;24.53500393;73339;70118.99692;233.2113794
1662023745-826;Wülflingerstrasse 349, 8408 Winterthur, ZH;17.09.2022 11:44;2.5;70;0;1595;22.79;47.51451874;8.683442116;230;Winterthur;113173;1662.597326;24.53500393;73339;70118.99692;889.2393362
1662023789-1154;Konradstrasse 12, 8400 Winterthur, ZH;17.09.2022 11:44;4.5;130;0;2620;20.15;47.5020752;8.72204113;230;Winterthur;113173;1662.597326;24.53500393;73339;70118.99692;118.4731167
1662023767-997;Wülflingerstrasse 151a, 8408 Winterthur, ZH;17.09.2022 11:44;4.5;114;0;2650;23.25;47.50883865;8.704948425;230;Winterthur;113173;1662.597326;24.53500393;73339;70118.99692;589.3818194
1662023717-620;Else-Züblin-Strasse 112, 8404 Winterthur, ZH;17.09.2022 11:44;3.5;144;0;2410;16.74;47.50380325;8.763983727;230;Winterthur;113173;1662.597326;24.53500393;73339;70118.99692;517.669702
1662023795-1204;Else-Züblin-Str. 74, 8404 Winterthur, ZH;17.09.2022 11:44;3.5;99;0;2140;21.62;47.50324631;8.765312195;230;Winterthur;113173;1662.597326;24.53500393;73339;70118.99692;422.0208254
1662023774-1035;Kreuzstrasse 7, 8400 Winterthur, ZH;17.09.2022 11:44;4;112;0;3350;29.91;47.5036087;8.729001045;230;Winterthur;113173;1662.597326;24.53500393;73339;70118.99692;383.9946774
1662023798-1234;Neuwiesenstrasse 31, 8400 Winterthur, ZH;17.09.2022 11:44;3.5;94;0;2800;29.79;47.50036621;8.719480515;230;Winterthur;113173;1662.597326;24.53500393;73339;70118.99692;65.90923487
1662023774-1036;Kreuzstrasse 7, 8400 Winterthur, ZH;17.09.2022 11:44;4;112;0;3350;29.91;47.5036087;8.729001045;230;Winterthur;113173;1662.597326;24.53500393;73339;70118.99692;383.9946774
1662023813-1349;Wülflingerstrasse 2, 8400 Winterthur, ZH;17.09.2022 11:44;2;54;0;1910;35.37;47.50292206;8.724250793;230;Winterthur;113173;1662.597326;24.53500393;73339;70118.99692;263.2741077
1662023752-868;Poststrasse 1, 8406 Winterthur, ZH;17.09.2022 11:44;1.5;33;0;1259;38.15;47.49065781;8.705796242;230;Winterthur;113173;1662.597326;24.53500393;73339;70118.99692;52.87463611
1662023783-1120;Unterwegli 35, 8404 Winterthur, ZH;17.09.2022 11:44;3.5;88;0;1780;20.23;47.50488663;8.752949715;230;Winterthur;113173;1662.597326;24.53500393;73339;70118.99692;196.5439433
1662023793-1191;Else-Züblin-Strasse 73, 8404 Winterthur, ZH;17.09.2022 11:44;3.5;94;0;2160;22.98;47.50276184;8.763882637;230;Winterthur;113173;1662.597326;24.53500393;73339;70118.99692;537.704968
1662023707-539;Hulfteggstr. 19, 8400 Winterthur, ZH;17.09.2022 11:44;5;95;0;1570;16.53;47.49119568;8.751929283;230;Winterthur;113173;1662.597326;24.53500393;73339;70118.99692;286.3505417
1662023804-1277;Holzlegistr. 6, 8408 Winterthur, ZH;17.09.2022 11:44;3;62;0;1505;24.27;47.51207352;8.695403099;230;Winterthur;113173;1662.597326;24.53500393;73339;70118.99692;193.3539656
1662023783-1123;Else-Züblin-Strasse 77, 8404 Winterthur, ZH;17.09.2022 11:44;3.5;94;0;2085;22.18;47.50312042;8.763753891;230;Winterthur;113173;1662.597326;24.53500393;73339;70118.99692;540.220847
1662023789-1176;Magazingasse 2, 8400 Winterthur, ZH;17.09.2022 11:44;4.5;109;0;2885;26.47;47.50620651;8.718906403;230;Winterthur;113173;1662.597326;24.53500393;73339;70118.99692;262.301727
1662023764-965;Schaffhauserstrasse 29, 8400 Winterthur, ZH;17.09.2022 11:44;4;82;0;1950;23.78;47.50638199;8.723402977;230;Winterthur;113173;1662.597326;24.53500393;73339;70118.99692;605.5539479
1662023698-462;Schlosshofstrasse 21, 8400 Winterthur, ZH;17.09.2022 11:44;2.5;68;0;2020;29.71;47.49552917;8.711296082;230;Winterthur;113173;1662.597326;24.53500393;73339;70118.99692;132.1232853
1662023807-1304;Breitestrasse 56, 8400 Winterthur, ZH;17.09.2022 11:44;4;90;0;2130;23.67;47.49045563;8.727546692;230;Winterthur;113173;1662.597326;24.53500393;73339;70118.99692;492.9157738
1662023707-534;Tellstrasse 16a, 8400 Winterthur, ZH;17.09.2022 11:44;3.5;63;0;1790;28.41;47.50239182;8.72051239;230;Winterthur;113173;1662.597326;24.53500393;73339;70118.99692;186.3350624
1662023689-406;Thurgauerstrasse 2, 8400 Winterthur, ZH;17.09.2022 11:44;4;75;0;1950;26;47.49839783;8.74239254;230;Winterthur;113173;1662.597326;24.53500393;73339;70118.99692;429.5011919
1662023736-758;Nägelseestrasse 26, 8406 Winterthur, ZH;17.09.2022 11:44;2;45;0;1390;30.89;47.49116516;8.702677727;230;Winterthur;113173;1662.597326;24.53500393;73339;70118.99692;215.661192
1662023764-977;Türlimattstr. 1, 8404 Winterthur, ZH;17.09.2022 11:44;3.5;71;0;1617;22.77;47.50771713;8.749386787;230;Winterthur;113173;1662.597326;24.53500393;73339;70118.99692;542.2782126
1662023723-672;Wülflingerstrasse 151b, 8408 Winterthur, ZH;17.09.2022 11:44;3.5;85;0;2110;24.82;47.50856781;8.704839706;230;Winterthur;113173;1662.597326;24.53500393;73339;70118.99692;586.5775905
1662023686-379;Seenerstrasse 218, 8405 Winterthur, ZH;17.09.2022 11:44;3;65;0;1750;26.92;47.48553467;8.758892059;230;Winterthur;113173;1662.597326;24.53500393;73339;70118.99692;291.4463664
1662023786-1132;Römerstrasse 52, 8400 Winterthur, ZH;17.09.2022 11:44;2.5;56;0;1390;24.82;47.50064468;8.743654251;230;Winterthur;113173;1662.597326;24.53500393;73339;70118.99692;274.9044715
1662023764-984;Unt. Schöntalstrasse 5, 8406 Winterthur, ZH;17.09.2022 11:44;3;61;0;1445;23.69;47.49348831;8.708704948;230;Winterthur;113173;1662.597326;24.53500393;73339;70118.99692;247.2057581
1662023789-1156;Weberstrasse 91, 8400 Winterthur, ZH;17.09.2022 11:44;4.5;109;0;2500;22.94;47.49053192;8.746732712;230;Winterthur;113173;1662.597326;24.53500393;73339;70118.99692;113.5887548
1662023749-864;Jägerstrasse 59, 8406 Winterthur, ZH;17.09.2022 11:44;3.5;82;0;2350;28.66;47.49499512;8.713829041;230;Winterthur;113173;1662.597326;24.53500393;73339;70118.99692;82.46380405
1662023807-1302;Sulzbergstrasse 8, 8400 Winterthur, ZH;17.09.2022 11:44;2;51;0;1550;30.39;47.50327301;8.729370117;230;Winterthur;113173;1662.597326;24.53500393;73339;70118.99692;400.4271928
1662023786-1141;Hündlerstrasse 77, 8406 Winterthur, ZH;17.09.2022 11:44;1.5;100;1;2200;22;47.48168945;8.699022293;230;Winterthur;113173;1662.597326;24.53500393;73339;70118.99692;474.7012659
1662023780-1089;Else-Züblin-Strasse 77, 8404 Winterthur, ZH;17.09.2022 11:44;2.5;76;0;2025;26.64;47.50312042;8.763753891;230;Winterthur;113173;1662.597326;24.53500393;73339;70118.99692;540.220847
1662023764-969;Grüzefeldstrasse 44, 8400 Winterthur, ZH;17.09.2022 11:44;3.5;75;0;1650;22;47.49379349;8.751358032;230;Winterthur;113173;1662.597326;24.53500393;73339;70118.99692;263.158657
1662023695-450;Schaffhauserstrasse 32, 8400 Winterthur, ZH;17.09.2022 11:44;4.5;87;0;1770;20.34;47.50722504;8.72339344;230;Winterthur;113173;1662.597326;24.53500393;73339;70118.99692;440.8851739
1662023749-863;Seuzacherstr. 11a, 8400 Winterthur, ZH;17.09.2022 11:44;3.5;95;0;2480;26.11;47.51870728;8.720742226;230;Winterthur;113173;1662.597326;24.53500393;73339;70118.99692;16.65818819
1662023733-741;General-Guisan-Strasse 43, 8400 Winterthur, ZH;17.09.2022 11:44;3.5;78;0;1490;19.1;47.49982834;8.733386993;230;Winterthur;113173;1662.597326;24.53500393;73339;70118.99692;35.32106924
1662023777-1059;Türlimattstr. 3, 8404 Winterthur, ZH;17.09.2022 11:44;4.5;85;0;1890;22.24;47.50799179;8.749725342;230;Winterthur;113173;1662.597326;24.53500393;73339;70118.99692;380.1804158
1662023783-1105;Katharina Sulzer Platz 8, 8400 Winterthur, ZH;17.09.2022 11:44;2.5;111;0;2370;21.35;47.49697113;8.717944145;230;Winterthur;113173;1662.597326;24.53500393;73339;70118.99692;277.6497051
1662023810-1327;Hulfteggstrasse 18, 8400 Winterthur, ZH;17.09.2022 11:44;3;62;0;1495;24.11;47.4917717;8.753170967;230;Winterthur;113173;1662.597326;24.53500393;73339;70118.99692;552.2519321
1662023764-976;Schulergasse 4, 8406 Winterthur, ZH;17.09.2022 11:44;2;39;0;1040;26.67;47.49108887;8.705008507;230;Winterthur;113173;1662.597326;24.53500393;73339;70118.99692;39.91984757
1662023795-1205;Steiggasse 4, 8400 Winterthur, ZH;17.09.2022 11:44;2;52;0;1700;32.69;47.49804306;8.727981567;230;Winterthur;113173;1662.597326;24.53500393;73339;70118.99692;95.37618207
1662023752-885;Hegifeldstrasse 64, 8404 Winterthur, ZH;17.09.2022 11:44;3;61;0;1340;21.97;47.50727081;8.76787281;230;Winterthur;113173;1662.597326;24.53500393;73339;70118.99692;446.994731
1662023739-783;Espenstr. 73, 8408 Winterthur, ZH;17.09.2022 11:44;3.5;83;0;2040;24.58;47.50705338;8.680699348;230;Winterthur;113173;1662.597326;24.53500393;73339;70118.99692;1068.458303
1662023801-1255;Wingertlistrasse 19, 8405 Winterthur, ZH;17.09.2022 11:44;2.5;70;0;1380;19.71;47.48936462;8.760986328;230;Winterthur;113173;1662.597326;24.53500393;73339;70118.99692;472.0552625
1662023742-813;Reutlingerstr. 17, 8404 Winterthur, ZH;17.09.2022 11:44;5.5;109;0;2280;20.92;47.52203751;8.756557465;230;Winterthur;113173;1662.597326;24.53500393;73339;70118.99692;1629.315428
1662023767-996;Claisstrasse 11, 8408 Winterthur, ZH;17.09.2022 11:44;3.5;93;0;2290;24.62;47.51573181;8.685565948;230;Winterthur;113173;1662.597326;24.53500393;73339;70118.99692;835.9420874
1662023720-645;Rümikerstrasse 36, 8409 Winterthur, ZH;17.09.2022 11:44;3.5;83;0;1800;21.69;47.50401688;8.769974709;230;Winterthur;113173;1662.597326;24.53500393;73339;70118.99692;70.75477938
1662023758-932;Seuzacherstr. 9b, 8400 Winterthur, ZH;17.09.2022 11:44;3.5;94;0;2480;26.38;47.51848221;8.719965935;230;Winterthur;113173;1662.597326;24.53500393;73339;70118.99692;52.95983594
1662023695-451;Rütlistr. 17, 8400 Winterthur, ZH;17.09.2022 11:44;3;66;0;1700;25.76;47.50872803;8.722215652;230;Winterthur;113173;1662.597326;24.53500393;73339;70118.99692;332.0574375
1662023767-986;Jägerstrasse 59, 8406 Winterthur, ZH;17.09.2022 11:44;3.5;85;0;2420;28.47;47.49499512;8.713829041;230;Winterthur;113173;1662.597326;24.53500393;73339;70118.99692;82.46380405
1662023752-884;Zürcherstrasse 58, 8406 Winterthur, ZH;17.09.2022 11:44;2.5;82;0;1890;23.05;47.49482346;8.711419106;230;Winterthur;113173;1662.597326;24.53500393;73339;70118.99692;100.4945386
1662023689-396;Rosentalstrasse 72, 8400 Winterthur, ZH;17.09.2022 11:44;1.5;55;1;1515;27.55;47.51045227;8.723488808;230;Winterthur;113173;1662.597326;24.53500393;73339;70118.99692;481.138256
1662023714-600;Sonnenblickstrasse 23, 8404 Winterthur, ZH;17.09.2022 11:44;4;88;0;2065;23.47;47.51654434;8.758272171;230;Winterthur;113173;1662.597326;24.53500393;73339;70118.99692;1047.638163
1662023795-1212;Feldstrasse 16, 8400 Winterthur, ZH;17.09.2022 11:44;1.5;158;1;3430;21.71;47.50643158;8.718624115;230;Winterthur;113173;1662.597326;24.53500393;73339;70118.99692;232.2529809
1662023793-1181;Schützenstrasse 42, 8400 Winterthur, ZH;17.09.2022 11:44;3.5;90;0;2030;22.56;47.50262451;8.718854904;230;Winterthur;113173;1662.597326;24.53500393;73339;70118.99692;232.5232508
1662023701-491;Schlossackerstrasse 11, 8404 Winterthur, ZH;17.09.2022 11:44;3.5;115;0;1980;17.22;47.50833511;8.767489433;230;Winterthur;113173;1662.597326;24.53500393;73339;70118.99692;564.8623299
1662023807-1301;Eichliackerstrasse 18, 8406 Winterthur, ZH;17.09.2022 11:44;2;46;0;1430;31.09;47.48926544;8.713685989;230;Winterthur;113173;1662.597326;24.53500393;73339;70118.99692;626.6654462
1662023789-1159;Else-Züblin-Strasse 73, 8404 Winterthur, ZH;17.09.2022 11:44;3.5;96;0;2390;24.9;47.50276184;8.763882637;230;Winterthur;113173;1662.597326;24.53500393;73339;70118.99692;537.704968
1662023758-930;Bollstrasse 39, 8405 Winterthur, ZH;17.09.2022 11:44;3;69;0;1520;22.03;47.48131943;8.760581017;230;Winterthur;113173;1662.597326;24.53500393;73339;70118.99692;470.4361474
1662023795-1202;Bettenstrasse 66, 8400 Winterthur, ZH;17.09.2022 11:44;2.5;55;1;1675;30.45;47.51546478;8.716787338;230;Winterthur;113173;1662.597326;24.53500393;73339;70118.99692;459.9915624
1662023723-656;8409 Winterthur, ZH;17.09.2022 11:44;3.5;75;0;1840;24.53;47.50626755;8.779024124;230;Winterthur;113173;1662.597326;24.53500393;73339;70118.99692;595.0101056
1662023801-1257;Einfangstrasse 13, 8406 Winterthur, ZH;17.09.2022 11:44;1;27;0;970;35.93;47.49158096;8.709972382;230;Winterthur;113173;1662.597326;24.53500393;73339;70118.99692;267.5475895
1662023733-732;Hegifeldstrasse 66, 8404 Winterthur, ZH;17.09.2022 11:44;2;48;0;1270;26.46;47.50706863;8.767720222;230;Winterthur;113173;1662.597326;24.53500393;73339;70118.99692;433.8598372
1662023733-729;Jägerstrasse 59, 8406 Winterthur, ZH;17.09.2022 11:44;2.5;71;0;2130;30;47.49499512;8.713829041;230;Winterthur;113173;1662.597326;24.53500393;73339;70118.99692;82.46380405
1662023764-982;Weststr. 131, 8408 Winterthur, ZH;17.09.2022 11:44;3.5;83;0;1770;21.33;47.50980759;8.705296516;230;Winterthur;113173;1662.597326;24.53500393;73339;70118.99692;615.0700578
1662023755-902;Oberfeldstrasse 2, 8408 Winterthur, ZH;17.09.2022 11:44;2;46;0;1490;32.39;47.50580597;8.707270622;230;Winterthur;113173;1662.597326;24.53500393;73339;70118.99692;390.0873005
1662023774-1048;Robert-Sulzer-Gasse 4, 8400 Winterthur, ZH;17.09.2022 11:44;3.5;93;0;2255;24.25;47.49491501;8.716140747;230;Winterthur;113173;1662.597326;24.53500393;73339;70118.99692;255.4554525
1662023730-705;Tösstalstrasse 345, 8482 Sennhof (Winterthur), ZH;17.09.2022 11:44;3.5;90;0;1570;17.44;47.46803665;8.760699272;230;Winterthur;113173;1662.597326;24.53500393;73339;70118.99692;157.5374389
1662023774-1034;Kreuzstrasse 7, 8400 Winterthur, ZH;17.09.2022 11:44;4;98;0;3350;34.18;47.5036087;8.729001045;230;Winterthur;113173;1662.597326;24.53500393;73339;70118.99692;383.9946774
1662023745-817;Riedhofstrasse 58, 8408 Winterthur, ZH;17.09.2022 11:44;3.5;100;0;2710;27.1;47.5136261;8.694538116;230;Winterthur;113173;1662.597326;24.53500393;73339;70118.99692;329.2455571
1662023804-1284;Else-Züblin-Strasse 106, 8404 Winterthur, ZH;17.09.2022 11:44;3.5;103;0;2090;20.29;47.5038681;8.764745712;230;Winterthur;113173;1662.597326;24.53500393;73339;70118.99692;460.3336001
1662023730-697;Scheideggstrasse 8, 8400 Winterthur, ZH;17.09.2022 11:44;3;68;0;1750;25.74;47.49159622;8.750418663;230;Winterthur;113173;1662.597326;24.53500393;73339;70118.99692;199.1692313
1662023720-644;Burstwiesenstr. 16, 8606 Greifensee, ZH;17.09.2022 11:44;4;80;0;1965;24.56;47.36891556;8.680346489;194;Greifensee;5385;2372.246696;20.16713092;1663;85454.80811;147.3568762
1662023714-599;Burstwiesenstr. 22, 8606 Greifensee, ZH;17.09.2022 11:44;4;80;0;1920;24;47.36946487;8.679994583;194;Greifensee;5385;2372.246696;20.16713092;1663;85454.80811;197.0961737
1662023752-881;Sandbüelstrasse 44, 8606 Greifensee, ZH;17.09.2022 11:44;3;71;0;1810;25.49;47.37326431;8.676733017;194;Greifensee;5385;2372.246696;20.16713092;1663;85454.80811;650.0143937
1662023771-1017;Müllerwis 30, 8606 Greifensee, ZH;17.09.2022 11:44;4;81;0;1947;24.04;47.36926651;8.681855202;194;Greifensee;5385;2372.246696;20.16713092;1663;85454.80811;247.7058419
1662023736-765;Burstwiesenstr. 22, 8606 Greifensee, ZH;17.09.2022 11:44;4;80;0;1945;24.31;47.36946487;8.679994583;194;Greifensee;5385;2372.246696;20.16713092;1663;85454.80811;197.0961737
1662023771-1027;Müllerwis 25, 8606 Greifensee, ZH;17.09.2022 11:44;2;55;0;1422;25.85;47.37081146;8.682324409;194;Greifensee;5385;2372.246696;20.16713092;1663;85454.80811;404.5167054
1662023810-1335;Am Pfisterhölzli 36, 8606 Greifensee, ZH;17.09.2022 11:44;5;94;0;1914;20.36;47.36343765;8.691127777;194;Greifensee;5385;2372.246696;20.16713092;1663;85454.80811;1000.318485
1662023739-782;Bergacherstrasse 4, 8630 Rüti ZH, ZH;17.09.2022 11:44;1;34;0;850;25;47.25069427;8.855641365;118;Rüti (ZH);12286;1221.272366;24.84128276;5053;65362.04268;424.9423686
1662023730-707;Walderstrasse 103, 8630 Rüti ZH, ZH;17.09.2022 11:44;3.5;78;0;1760;22.56;47.26651382;8.867326736;118;Rüti (ZH);12286;1221.272366;24.84128276;5053;65362.04268;1029.407235
1662023689-408;Widenweg 12, 8630 Rüti ZH, ZH;17.09.2022 11:44;4;70;0;1490;21.29;47.25362396;8.854136467;118;Rüti (ZH);12286;1221.272366;24.84128276;5053;65362.04268;106.3629607
1662023689-407;Werkstrasse 47, 8630 Rüti ZH, ZH;17.09.2022 11:44;3.5;80;0;2030;25.38;47.25243759;8.853998184;118;Rüti (ZH);12286;1221.272366;24.84128276;5053;65362.04268;195.2862875
1662023707-548;Moosstrasse 22, 8630 Rüti ZH, ZH;17.09.2022 11:44;3;61;0;1090;17.87;47.25400543;8.855942726;118;Rüti (ZH);12286;1221.272366;24.84128276;5053;65362.04268;206.5114356
1662023723-663;Bachtelstrasse 24b, 8630 Rüti ZH, ZH;17.09.2022 11:44;4;79;0;1620;20.51;47.26611328;8.866871834;118;Rüti (ZH);12286;1221.272366;24.84128276;5053;65362.04268;974.8442088
1662023723-668;Werkstrasse 47, 8630 Rüti ZH, ZH;17.09.2022 11:44;3.5;80;0;2050;25.62;47.25243759;8.853998184;118;Rüti (ZH);12286;1221.272366;24.84128276;5053;65362.04268;195.2862875
1662023739-792;Frohwiesstrasse 14, 8630 Rüti ZH, ZH;17.09.2022 11:44;3.5;70;0;1465;20.93;47.26621628;8.868329048;118;Rüti (ZH);12286;1221.272366;24.84128276;5053;65362.04268;1070.714031
1662023707-540;Aronenweg 9, 8618 Oetwil am See, ZH;17.09.2022 11:44;3.5;78;0;1680;21.54;47.27603149;8.718671799;157;Oetwil am See;4840;792.1440262;29.25619835;2303;68443.80331;545.1583964
1662023783-1117;Glärnischstrasse 62, 8618 Oetwil am See, ZH;17.09.2022 11:44;4.5;98;0;1885;19.23;47.27785873;8.7202034;157;Oetwil am See;4840;792.1440262;29.25619835;2303;68443.80331;725.6365795
1662023707-537;Aronenweg 17, 8618 Oetwil am See, ZH;17.09.2022 11:44;4.5;102;0;2000;19.61;47.27553558;8.718412399;157;Oetwil am See;4840;792.1440262;29.25619835;2303;68443.80331;499.4382613
1662023707-538;Pilatusstrasse 14, 8330 Pfäffikon ZH, ZH;17.09.2022 11:44;2.5;75;0;1960;26.13;47.364254;8.783860207;177;Pfäffikon;12164;623.475141;19.08911542;5895;76953.43774;236.4514834
1662023711-561;Schulstrasse 26a, 8330 Pfäffikon ZH, ZH;17.09.2022 11:44;1;19;0;1100;57.89;47.36679459;8.781128883;177;Pfäffikon;12164;623.475141;19.08911542;5895;76953.43774;127.0434909
1662023698-479;Obermattstrasse 82, 8330 Pfäffikon ZH, ZH;17.09.2022 11:44;2;60;0;1615;26.92;47.37073135;8.782037735;177;Pfäffikon;12164;623.475141;19.08911542;5895;76953.43774;205.1981377
1662023695-439;Steinackerstrasse 25, 8330 Pfäffikon ZH, ZH;17.09.2022 11:44;4.5;84;0;1950;23.21;47.37303925;8.780903816;177;Pfäffikon;12164;623.475141;19.08911542;5895;76953.43774;468.1636858
1662023686-369;Schärackerstrasse 15, 8330 Pfäffikon ZH, ZH;17.09.2022 11:44;4.5;77;0;1791;23.26;47.37131119;8.779349327;177;Pfäffikon;12164;623.475141;19.08911542;5895;76953.43774;331.017328
1662023789-1161;Nelkenstr. 9, 8330 Pfäffikon ZH, ZH;17.09.2022 11:44;3.5;79;0;1710;21.65;47.37203598;8.784619331;177;Pfäffikon;12164;623.475141;19.08911542;5895;76953.43774;404.5619455
1662023767-1001;Nelkenstr. 2, 8330 Pfäffikon ZH, ZH;17.09.2022 11:44;4.5;165;0;2679;16.24;47.37173843;8.784454346;177;Pfäffikon;12164;623.475141;19.08911542;5895;76953.43774;369.7358779
1662023736-761;Tunnelstr. 7, 8330 Pfäffikon ZH, ZH;17.09.2022 11:44;3.5;96;0;2060;21.46;47.36857605;8.781661034;177;Pfäffikon;12164;623.475141;19.08911542;5895;76953.43774;40.29460535
1662023780-1084;Nelkenstr. 2, 8330 Pfäffikon ZH, ZH;17.09.2022 11:44;3.5;76;0;1700;22.37;47.37173843;8.784454346;177;Pfäffikon;12164;623.475141;19.08911542;5895;76953.43774;369.7358779
1662023793-1179;Bachtelstrasse 57, 8330 Pfäffikon ZH, ZH;17.09.2022 11:44;3.5;108;0;2654;24.57;47.36494064;8.791268349;177;Pfäffikon;12164;623.475141;19.08911542;5895;76953.43774;672.7461707
1662023695-442;Schärackerstrasse 9, 8330 Pfäffikon ZH, ZH;17.09.2022 11:44;3.5;91;0;1990;21.87;47.3711853;8.779633522;177;Pfäffikon;12164;623.475141;19.08911542;5895;76953.43774;310.5389796
1662023767-990;Nelkenstr. 9, 8330 Pfäffikon ZH, ZH;17.09.2022 11:44;3.5;79;0;1640;20.76;47.37203598;8.784619331;177;Pfäffikon;12164;623.475141;19.08911542;5895;76953.43774;404.5619455
1662023717-608;Tunnelstr. 5, 8330 Pfäffikon ZH, ZH;17.09.2022 11:44;5.5;155;0;3300;21.29;47.36875916;8.780900002;177;Pfäffikon;12164;623.475141;19.08911542;5895;76953.43774;24.87292334
1662023771-1016;Schulstrasse 12, 8330 Pfäffikon ZH, ZH;17.09.2022 11:44;3.5;101;0;2305;22.82;47.36713791;8.780004501;177;Pfäffikon;12164;623.475141;19.08911542;5895;76953.43774;143.8591495
1662023795-1214;Hittnauerstrasse 62, 8330 Pfäffikon ZH, ZH;17.09.2022 11:44;3;60;0;1500;25;47.36471558;8.796123505;177;Pfäffikon;12164;623.475141;19.08911542;5895;76953.43774;1038.03567
1662023707-532;Hochstrasse 141, 8330 Pfäffikon ZH, ZH;17.09.2022 11:44;2.5;91;0;1725;18.96;47.36073303;8.793621063;177;Pfäffikon;12164;623.475141;19.08911542;5895;76953.43774;1032.775843
1662023701-497;Kempttalstrasse 43, 8330 Pfäffikon ZH, ZH;17.09.2022 11:44;3.5;88;0;1870;21.25;47.36790085;8.780043602;177;Pfäffikon;12164;623.475141;19.08911542;5895;76953.43774;70.73575862
1662023777-1071;Pilatusstrasse 22, 8330 Pfäffikon ZH, ZH;17.09.2022 11:44;1;108;0;2305;21.34;47.36396408;8.783564568;177;Pfäffikon;12164;623.475141;19.08911542;5895;76953.43774;258.6229805
1662023730-704;Dorfstrasse 84, 8954 Geroldswil, ZH;17.09.2022 11:44;4.5;100;0;1880;18.8;47.42408752;8.411906242;244;Geroldswil;4934;2556.476684;26.75314147;;82322.24771;300.0447294
1662023774-1039;Dorfstrasse 100, 8954 Geroldswil, ZH;17.09.2022 11:44;4.5;86;0;1680;19.53;47.42427826;8.409123421;244;Geroldswil;4934;2556.476684;26.75314147;;82322.24771;252.43757
1662023723-660;Brunaustrasse 160, 8951 Fahrweid, ZH;17.09.2022 11:44;3.5;84;1;2490;29.64;47.41254044;8.417913437;244;Geroldswil;4934;2556.476684;26.75314147;;82322.24771;1096.205903
1662023783-1114;Huebwiesenstrasse 20, 8954 Geroldswil, ZH;17.09.2022 11:44;5.5;173;0;2530;14.62;47.42100906;8.412511826;244;Geroldswil;4934;2556.476684;26.75314147;;82322.24771;85.31886597
1662023692-432;8954 Geroldswil, ZH;17.09.2022 11:44;4;102;0;2150;21.08;47.42545319;8.410881042;244;Geroldswil;4934;2556.476684;26.75314147;;82322.24771;453.3236249
1662023689-390;8954 Geroldswil, ZH;17.09.2022 11:44;2.5;82;0;1500;18.29;47.42545319;8.410881042;244;Geroldswil;4934;2556.476684;26.75314147;;82322.24771;453.3236249
1662023771-1023;Soodstrasse 13, 8134 Adliswil, ZH;17.09.2022 11:44;4;90;0;2030;22.56;47.31380463;8.526074409;131;Adliswil;18944;2438.095238;37.78505068;7507;86141.18828;206.9648475
1662023771-1012;Rütistr. 28, 8134 Adliswil, ZH;17.09.2022 11:44;1;32;0;1120;35;47.30426788;8.52925396;131;Adliswil;18944;2438.095238;37.78505068;7507;86141.18828;846.0175045
1662023730-720;Parkweg 10, 8134 Adliswil, ZH;17.09.2022 11:44;3.5;80;0;2420;30.25;47.32250595;8.530079842;131;Adliswil;18944;2438.095238;37.78505068;7507;86141.18828;798.6534871
1662023698-473;Kronenstrasse 3, 8134 Adliswil, ZH;17.09.2022 11:44;4.5;105;0;2850;27.14;47.31185913;8.527588844;131;Adliswil;18944;2438.095238;37.78505068;7507;86141.18828;207.9117505
1662023730-719;Salamanderweg 3, 8134 Adliswil, ZH;17.09.2022 11:44;4.5;108;0;3160;29.26;47.32252502;8.530826569;131;Adliswil;18944;2438.095238;37.78505068;7507;86141.18828;800.66918
1662023774-1051;Breitenstrasse 12, 8134 Adliswil, ZH;17.09.2022 11:44;3.5;70;0;1950;27.86;47.30633163;8.519345284;131;Adliswil;18944;2438.095238;37.78505068;7507;86141.18828;696.6822671
1662023730-718;Parkweg 8, 8134 Adliswil, ZH;17.09.2022 11:44;2.5;45;0;1565;34.78;47.32226181;8.530164719;131;Adliswil;18944;2438.095238;37.78505068;7507;86141.18828;771.309752
1662023810-1330;Oberhusstrasse 24, 8134 Adliswil, ZH;17.09.2022 11:44;3.5;87;0;2075;23.85;47.29860306;8.523846626;131;Adliswil;18944;2438.095238;37.78505068;7507;86141.18828;1413.765986
1662023798-1232;Rainstrasse 10, 8134 Adliswil, ZH;17.09.2022 11:44;3.5;95;1;3000;31.58;47.32304764;8.517567635;131;Adliswil;18944;2438.095238;37.78505068;7507;86141.18828;420.7689571
1662023695-440;Im Sihlhof 2, 8134 Adliswil, ZH;17.09.2022 11:44;1.5;61;0;1960;32.13;47.32122421;8.522125244;131;Adliswil;18944;2438.095238;37.78505068;7507;86141.18828;100.5098307
1662023701-500;Zelgstrasse 48, 8134 Adliswil, ZH;17.09.2022 11:44;3.5;71;0;1790;25.21;47.31568909;8.517690659;131;Adliswil;18944;2438.095238;37.78505068;7507;86141.18828;260.3926298
1662023767-998;Steinmürlistrasse 42, 8953 Dietikon, ZH;17.09.2022 11:44;3.5;81;0;1900;23.46;47.40464401;8.392952919;243;Dietikon;27746;2970.663812;46.2264831;18911;64662.73778;131.177497
1662023807-1298;Grünaustrasse 12, 8953 Dietikon, ZH;17.09.2022 11:44;3.5;92;0;2440;26.52;47.40992355;8.403440475;243;Dietikon;27746;2970.663812;46.2264831;18911;64662.73778;78.44046807
1662023810-1344;Grünaustrasse 10, 8953 Dietikon, ZH;17.09.2022 11:44;1.5;61;0;1730;28.36;47.40949249;8.403727531;243;Dietikon;27746;2970.663812;46.2264831;18911;64662.73778;106.6631069
1662023689-387;Winzerstrasse 17, 8953 Dietikon, ZH;17.09.2022 11:44;2;38;0;1800;47.37;47.40036011;8.386734009;243;Dietikon;27746;2970.663812;46.2264831;18911;64662.73778;724.676838
1662023739-779;Alfred Comte-Strasse 3, 8953 Dietikon, ZH;17.09.2022 11:44;3.5;87;0;2190;25.17;47.40963745;8.406033516;243;Dietikon;27746;2970.663812;46.2264831;18911;64662.73778;86.20368784
1662023798-1248;Überlandstr. 26, 8953 Dietikon, ZH;17.09.2022 11:44;2;100;0;2220;22.2;47.40888214;8.404066086;243;Dietikon;27746;2970.663812;46.2264831;18911;64662.73778;84.79047364
1662023739-778;Bleicherstrasse 43, 8953 Dietikon, ZH;17.09.2022 11:44;3.5;79;0;2600;32.91;47.40856552;8.395078659;243;Dietikon;27746;2970.663812;46.2264831;18911;64662.73778;355.7257711
1662023783-1106;Zentralstr. 6, 8953 Dietikon, ZH;17.09.2022 11:44;2.5;59;0;1660;28.14;47.40494156;8.400984764;243;Dietikon;27746;2970.663812;46.2264831;18911;64662.73778;33.16846286
1662023783-1116;Steinmürlistrasse 3, 8953 Dietikon, ZH;17.09.2022 11:44;3;64;0;1500;23.44;47.40771484;8.392432213;243;Dietikon;27746;2970.663812;46.2264831;18911;64662.73778;223.2808652
1662023771-1031;Heimstrasse 12, 8953 Dietikon, ZH;17.09.2022 11:44;3.5;89;0;2195;24.66;47.409935;8.405334473;243;Dietikon;27746;2970.663812;46.2264831;18911;64662.73778;82.79600352
1662023714-596;8953 Dietikon, ZH;17.09.2022 11:44;3.5;85;0;2690;31.65;47.40451431;8.402215958;243;Dietikon;27746;2970.663812;46.2264831;18911;64662.73778;65.40898774
1662023692-430;Bohnäckerstr. 11, 8955 Oetwil an der Limmat, ZH;17.09.2022 11:44;3.5;87;0;1895;21.78;47.42795563;8.391122818;243;Dietikon;27746;2970.663812;46.2264831;18911;64662.73778;1049.555168
1662023807-1314;Webereistrasse 8, 8953 Dietikon, ZH;17.09.2022 11:44;3.5;80;0;1974;24.68;47.40984726;8.404328346;243;Dietikon;27746;2970.663812;46.2264831;18911;64662.73778;61.19891386
1662023798-1226;Rebackerstrasse 31, 8955 Oetwil an der Limmat, ZH;17.09.2022 11:44;4.5;192;0;3400;17.71;47.4260025;8.397468567;243;Dietikon;27746;2970.663812;46.2264831;18911;64662.73778;931.0328735
1662023795-1215;Lägernstrasse 20, 8953 Dietikon, ZH;17.09.2022 11:44;3;60;0;1490;24.83;47.4056778;8.394124031;243;Dietikon;27746;2970.663812;46.2264831;18911;64662.73778;144.2011132
1662023714-578;Limmatwiesenstr. 22, 8955 Oetwil an der Limmat, ZH;17.09.2022 11:44;3.5;85;0;1820;21.41;47.42788315;8.393007278;243;Dietikon;27746;2970.663812;46.2264831;18911;64662.73778;1043.222806
1662023786-1134;Ueberlandstr. 14, 8953 Dietikon, ZH;17.09.2022 11:44;3.5;87;0;2280;26.21;47.40869522;8.40636158;243;Dietikon;27746;2970.663812;46.2264831;18911;64662.73778;112.4235134
1662023764-967;Webereistrasse 3, 8953 Dietikon, ZH;17.09.2022 11:44;3.5;93;0;2170;23.33;47.40999985;8.40428257;243;Dietikon;27746;2970.663812;46.2264831;18911;64662.73778;43.93425481
1662023755-911;Ueberlandstrasse 125, 8953 Dietikon, ZH;17.09.2022 11:44;3;55;0;1543;28.05;47.40914154;8.393057823;243;Dietikon;27746;2970.663812;46.2264831;18911;64662.73778;386.5720925
1662023793-1200;Obere Leihofstrasse 13, 8820 Wädenswil, ZH;17.09.2022 11:44;3.5;75;0;2125;28.33;47.22357178;8.666900635;293;Wädenswil;24624;690.9090909;22.21816114;9750;;494.2507695
1662023761-955;Alte Landstrasse 99, 8804 Au ZH, ZH;17.09.2022 11:44;3.5;75;0;2025;27;47.24703217;8.634622574;293;Wädenswil;24624;690.9090909;22.21816114;9750;;1131.313504
1662023783-1125;Kirchrain 1A, 8824 Schönenberg ZH, ZH;17.09.2022 11:44;5.5;155;0;3490;22.52;47.19338226;8.644906998;293;Wädenswil;24624;690.9090909;22.21816114;9750;;130.8873476
1662023798-1235;Seestrasse 131, 8820 Wädenswil, ZH;17.09.2022 11:44;3.5;140;1;2495;17.82;47.23108673;8.672642708;293;Wädenswil;24624;690.9090909;22.21816114;9750;;112.3055841
1662023813-1347;Rotweg 43, 8820 Wädenswil, ZH;17.09.2022 11:44;2.5;72;0;2270;31.53;47.22712326;8.662622452;293;Wädenswil;24624;690.9090909;22.21816114;9750;;450.109651
1662023780-1085;Kirchrain 1, 8824 Schönenberg ZH, ZH;17.09.2022 11:44;5.5;111;0;2350;21.17;47.1933136;8.645079613;293;Wädenswil;24624;690.9090909;22.21816114;9750;;126.7718614
1662023783-1121;Obere Leihofstrasse 11, 8820 Wädenswil, ZH;17.09.2022 11:44;4.5;112;0;3244;28.96;47.2236824;8.667063713;293;Wädenswil;24624;690.9090909;22.21816114;9750;;477.600722
1662023736-750;8820 Wädenswil, ZH;17.09.2022 11:44;2.5;60;0;2500;41.67;47.22698212;8.662249565;293;Wädenswil;24624;690.9090909;22.21816114;9750;;482.4107565
1662023783-1122;Obere Leihofstrasse 13, 8820 Wädenswil, ZH;17.09.2022 11:44;4.5;112;1;3250;29.02;47.22357178;8.666900635;293;Wädenswil;24624;690.9090909;22.21816114;9750;;494.2507695
1662023692-411;8820 Wädenswil, ZH;17.09.2022 11:44;1.5;40;0;1375;34.38;47.22698212;8.662249565;293;Wädenswil;24624;690.9090909;22.21816114;9750;;482.4107565
1662023777-1072;Obere Leihofstrasse 13, 8820 Wädenswil, ZH;17.09.2022 11:44;3.5;75;1;2190;29.2;47.22357178;8.666900635;293;Wädenswil;24624;690.9090909;22.21816114;9750;;494.2507695
1662023720-632;Am Gulmenbach 10, 8820 Wädenswil, ZH;17.09.2022 11:44;4.5;114;0;2800;24.56;47.23025894;8.656451225;293;Wädenswil;24624;690.9090909;22.21816114;9750;;875.7979968
1662023723-661;8820 Wädenswil, ZH;17.09.2022 11:44;2.5;60;0;1950;32.5;47.22698212;8.662249565;293;Wädenswil;24624;690.9090909;22.21816114;9750;;482.4107565
1662023789-1153;Obere Leihofstrasse 11, 8820 Wädenswil, ZH;17.09.2022 11:44;3.5;75;1;2291;30.55;47.2236824;8.667063713;293;Wädenswil;24624;690.9090909;22.21816114;9750;;477.600722
1662023711-571;Schönenbergstrasse 30, 8820 Wädenswil, ZH;17.09.2022 11:44;3.5;79;0;2510;31.77;47.22728729;8.669577599;293;Wädenswil;24624;690.9090909;22.21816114;9750;;38.22259427
1662023714-592;Holzmoosrütistrasse 44a, 8820 Wädenswil, ZH;17.09.2022 11:44;4.5;90;1;2220;24.67;47.235569;8.650527;293;Wädenswil;24624;690.9090909;22.21816114;9750;;830.2840519
1662023733-730;Holzmoosrütistrasse 44a, 8820 Wädenswil, ZH;17.09.2022 11:44;3.5;75;1;1995;26.6;47.235569;8.650527;293;Wädenswil;24624;690.9090909;22.21816114;9750;;830.2840519
1662023793-1197;Obere Leihofstrasse 11, 8820 Wädenswil, ZH;17.09.2022 11:44;4.5;105;1;2770;26.38;47.2236824;8.667063713;293;Wädenswil;24624;690.9090909;22.21816114;9750;;477.600722
1662023789-1158;Obere Leihofstrasse 9, 8820 Wädenswil, ZH;17.09.2022 11:44;3.5;82;0;2165;26.4;47.22379684;8.667224884;293;Wädenswil;24624;690.9090909;22.21816114;9750;;460.6959257
1662023777-1073;Seestrasse 147, 8820 Wädenswil, ZH;17.09.2022 11:44;3.5;93;0;2450;26.34;47.23194885;8.670972824;293;Wädenswil;24624;690.9090909;22.21816114;9750;;237.7012122
1662023793-1199;Obere Leihofstrasse 13, 8820 Wädenswil, ZH;17.09.2022 11:44;4.5;105;1;2818;26.84;47.22357178;8.666900635;293;Wädenswil;24624;690.9090909;22.21816114;9750;;494.2507695
1662023730-714;8820 Wädenswil, ZH;17.09.2022 11:44;3;57;0;2200;38.6;47.22698212;8.662249565;293;Wädenswil;24624;690.9090909;22.21816114;9750;;482.4107565
1662023686-366;Alte Landstrasse 95, 8804 Au ZH, ZH;17.09.2022 11:44;3.5;76;0;2125;27.96;47.2468338;8.636049271;293;Wädenswil;24624;690.9090909;22.21816114;9750;;1103.129666
1662023695-447;Mühlestalden 4, 8824 Schönenberg ZH, ZH;17.09.2022 11:44;5;130;0;1920;14.77;47.19911957;8.654162407;293;Wädenswil;24624;690.9090909;22.21816114;9750;;1056.189184
1662023777-1074;Auerenstrasse 14, 8820 Wädenswil, ZH;17.09.2022 11:44;2.5;79;1;2270;28.73;47.22977448;8.666169167;293;Wädenswil;24624;690.9090909;22.21816114;9750;;153.7875719
1662023704-521;Am Gulmenbach 6, 8820 Wädenswil, ZH;17.09.2022 11:44;5.5;132;0;3330;25.23;47.23059845;8.655874252;293;Wädenswil;24624;690.9090909;22.21816114;9750;;1288.450863
1662023786-1136;Obere Leihofstrasse 13, 8820 Wädenswil, ZH;17.09.2022 11:44;3.5;75;1;2270;30.27;47.22357178;8.666900635;293;Wädenswil;24624;690.9090909;22.21816114;9750;;494.2507695
1662023692-420;Zürcherstrasse 10, 8193 Eglisau, ZH;17.09.2022 11:44;2.5;58;0;1540;26.55;47.57310104;8.523083687;55;Eglisau;5339;589.2935982;24.14309796;1536;86144.94542;379.4753588
1662023720-641;Sandgruebstrasse 9, 8193 Eglisau, ZH;17.09.2022 11:44;4.5;128;0;2245;17.54;47.56932068;8.523771286;55;Eglisau;5339;589.2935982;24.14309796;1536;86144.94542;86.23540628
1662023692-418;Zürcherstrasse 10, 8193 Eglisau, ZH;17.09.2022 11:44;3.5;83;0;1940;23.37;47.57310104;8.523083687;55;Eglisau;5339;589.2935982;24.14309796;1536;86144.94542;379.4753588
1662023711-556;8193 Eglisau, ZH;17.09.2022 11:44;1;70;0;1490;21.29;47.57356262;8.520898819;55;Eglisau;5339;589.2935982;24.14309796;1536;86144.94542;332.4338645
1662023771-1014;Alte Landstrasse 29c, 8193 Eglisau, ZH;17.09.2022 11:44;3.5;98;0;2450;25;47.57099152;8.526036263;55;Eglisau;5339;589.2935982;24.14309796;1536;86144.94542;333.7088083
1662023692-421;Zürcherstrasse 10, 8193 Eglisau, ZH;17.09.2022 11:44;2.5;45;0;1240;27.56;47.57310104;8.523083687;55;Eglisau;5339;589.2935982;24.14309796;1536;86144.94542;379.4753588
1662023742-797;8193 Eglisau, ZH;17.09.2022 11:44;1;28;0;1390;49.64;47.57356262;8.520898819;55;Eglisau;5339;589.2935982;24.14309796;1536;86144.94542;332.4338645
1662023692-419;Zürcherstrasse 10, 8193 Eglisau, ZH;17.09.2022 11:44;1.5;34;0;1040;30.59;47.57310104;8.523083687;55;Eglisau;5339;589.2935982;24.14309796;1536;86144.94542;379.4753588
1662023730-701;Pfruendmattstrasse 11, 8932 Mettmenstetten, ZH;17.09.2022 11:44;3.5;89;0;2080;23.37;47.24324036;8.46505928;9;Mettmenstetten;5200;399.0790484;14.76923077;1680;86996.40977;132.1561021
1662023813-1346;Rossauerstrasse 25, 8932 Mettmenstetten, ZH;17.09.2022 11:44;2.5;74;1;2032;27.46;47.24093246;8.46761322;9;Mettmenstetten;5200;399.0790484;14.76923077;1680;86996.40977;449.4040108
1662023727-673;Albisstrasse 11, 8932 Mettmenstetten, ZH;17.09.2022 11:44;3;54;0;1480;27.41;47.24422073;8.464112282;9;Mettmenstetten;5200;399.0790484;14.76923077;1680;86996.40977;46.78694854
1662023698-477;Obere Fischbachstrasse 14, 8932 Mettmenstetten, ZH;17.09.2022 11:44;4.5;110;0;2160;19.64;47.24623108;8.46198082;9;Mettmenstetten;5200;399.0790484;14.76923077;1680;86996.40977;284.8222286
1662023698-474;Goethestr. 26, 8712 Stäfa, ZH;17.09.2022 11:44;2.5;58;1;1870;32.24;47.24072647;8.724349022;158;Stäfa;14718;1713.38766;19.32327762;6193;99050.82774;31.12079388
1662023739-769;Allenbergstrasse 25, 8712 Stäfa, ZH;17.09.2022 11:44;3;77;0;1570;20.39;47.24962234;8.722038269;158;Stäfa;14718;1713.38766;19.32327762;6193;99050.82774;919.1284778
1662023689-386;Eichstrasse 87a, 8713 Uerikon, ZH;17.09.2022 11:44;3.5;76;0;2300;30.26;47.23775864;8.749508858;158;Stäfa;14718;1713.38766;19.32327762;6193;99050.82774;595.713881
1662023789-1169;Tödihof 1, 8712 Stäfa, ZH;17.09.2022 11:44;5.5;105;0;2750;26.19;47.2431221;8.72457695;158;Stäfa;14718;1713.38766;19.32327762;6193;99050.82774;176.9270971
1662023793-1188;Bahnhofstrasse 25, 8712 Stäfa, ZH;17.09.2022 11:44;4;88;0;2550;28.98;47.24042511;8.721764565;158;Stäfa;14718;1713.38766;19.32327762;6193;99050.82774;167.8809006
1662023774-1049;Trübelstrasse 51, 8712 Stäfa, ZH;17.09.2022 11:44;5.5;150;0;4650;31;47.24744797;8.723974228;158;Stäfa;14718;1713.38766;19.32327762;6193;99050.82774;659.1672615
1662023717-605;Schwylerstr. 22, 8712 Stäfa, ZH;17.09.2022 11:44;3.5;80;0;1900;23.75;47.24040985;8.737948418;158;Stäfa;14718;1713.38766;19.32327762;6193;99050.82774;340.7176655
1662023798-1240;Eichstrasse 34b, 8712 Stäfa, ZH;17.09.2022 11:44;2.5;83;0;2715;32.71;47.23682022;8.74051857;158;Stäfa;14718;1713.38766;19.32327762;6193;99050.82774;646.9297811
1662023780-1100;Hauflandweg 18, 8605 Gutenswil, ZH;17.09.2022 11:44;3.5;70;0;1546;22.09;47.38703156;8.718835831;199;Volketswil;18640;1327.635328;24.59763949;11193;80595.52826;349.6404238
1662023761-937;Bachtelweg 9, 8604 Volketswil, ZH;17.09.2022 11:44;4;80;0;1626;20.32;47.39041138;8.681592941;199;Volketswil;18640;1327.635328;24.59763949;11193;80595.52826;257.3292833
1662023810-1329;Ifangstrasse 33, 8604 Volketswil, ZH;17.09.2022 11:44;4;80;0;1524;19.05;47.3909111;8.677771568;199;Volketswil;18640;1327.635328;24.59763949;11193;80595.52826;375.6426954
1662023752-883;Pfäffikerstrasse 119, 8605 Gutenswil, ZH;17.09.2022 11:44;3.5;100;0;1941;19.41;47.38532639;8.717787743;199;Volketswil;18640;1327.635328;24.59763949;11193;80595.52826;147.9670574
1662023777-1062;Ifangstrasse 48, 8604 Volketswil, ZH;17.09.2022 11:44;3;70;0;1490;21.29;47.39152527;8.676628113;199;Volketswil;18640;1327.635328;24.59763949;11193;80595.52826;482.5497886
1662023723-652;Sunnebüelstr. 41, 8604 Volketswil, ZH;17.09.2022 11:44;5;99;0;1840;18.59;47.39354706;8.681330681;199;Volketswil;18640;1327.635328;24.59763949;11193;80595.52826;598.8150483
1662023810-1337;Säntisweg 5, 8604 Volketswil, ZH;17.09.2022 11:44;2;53;0;1061;20.02;47.39535522;8.680856705;199;Volketswil;18640;1327.635328;24.59763949;11193;80595.52826;798.0216659
1662023720-635;Sagirain 2, 8605 Gutenswil, ZH;17.09.2022 11:44;2;72;0;1370;19.03;47.38547516;8.715425491;199;Volketswil;18640;1327.635328;24.59763949;11193;80595.52826;155.2367089
1662023707-535;Säntisweg 3, 8604 Volketswil, ZH;17.09.2022 11:44;1;35;0;995;28.43;47.39485931;8.680851936;199;Volketswil;18640;1327.635328;24.59763949;11193;80595.52826;742.8880429
1662023777-1061;Rigiweg 10, 8604 Volketswil, ZH;17.09.2022 11:44;3;77;0;1515;19.68;47.3910141;8.682113647;199;Volketswil;18640;1327.635328;24.59763949;11193;80595.52826;332.9367608
1662023723-653;Sunnebüelstr. 25, 8604 Volketswil, ZH;17.09.2022 11:44;4;86;0;1790;20.81;47.39284515;8.681580544;199;Volketswil;18640;1327.635328;24.59763949;11193;80595.52826;523.134294
1662023777-1076;Ifangstrasse 50, 8604 Volketswil, ZH;17.09.2022 11:44;3;70;0;1512;21.6;47.39119339;8.676480293;199;Volketswil;18640;1327.635328;24.59763949;11193;80595.52826;462.3173328
1662023752-875;Brunnenrain 18, 8415 Berg am Irchel, ZH;17.09.2022 11:44;3.5;97;0;1755;18.09;47.57069016;8.59641552;23;Berg am Irchel;577;82.31098431;8.838821491;137;76676.6323;1100.652848
1662023689-402;Dorfstrasse 31, 8196 Wil ZH, ZH;17.09.2022 11:44;4.5;109;0;2380;21.83;47.60468292;8.508256912;71;Wil (ZH);1474;164.6927374;12.41519674;543;91546.12795;1538.450558
1662023689-401;Dorfstrasse 31, 8196 Wil ZH, ZH;17.09.2022 11:44;3.5;102;0;2160;21.18;47.60468292;8.508256912;71;Wil (ZH);1474;164.6927374;12.41519674;543;91546.12795;1538.450558
1662023692-429;Im Riet 14, 8427 Freienstein, ZH;17.09.2022 11:44;4.5;91;0;1750;19.23;47.5369606;8.580428123;68;Rorbas;2885;649.7747748;28.0762565;462;67331.3197;673.7298102
1662023711-553;8192 Glattfelden, ZH;17.09.2022 11:44;3.5;88;0;1870;21.25;47.56193924;8.499773979;58;Glattfelden;5217;424.1463415;24.53517347;1104;72133.75058;612.6155914
1662023707-541;Eichhölzlistrasse 38, 8192 Glattfelden, ZH;17.09.2022 11:44;4.5;76;0;1650;21.71;47.55503464;8.505518913;58;Glattfelden;5217;424.1463415;24.53517347;1104;72133.75058;282.3683943
1662023701-484;8192 Glattfelden, ZH;17.09.2022 11:44;4;90;0;2125;23.61;47.56193924;8.499773979;58;Glattfelden;5217;424.1463415;24.53517347;1104;72133.75058;612.6155914
1662023777-1079;Seestrasse 65, 8810 Horgen, ZH;17.09.2022 11:44;4.5;114;0;2910;25.53;47.26427841;8.589810371;295;Horgen;22992;745.76711;29.46242171;10294;90000;166.2534023
1662023730-706;8810 Horgen, ZH;17.09.2022 11:44;2.5;50;0;1980;39.6;47.23668289;8.618281364;295;Horgen;22992;745.76711;29.46242171;10294;90000;1218.147771
1662023727-681;Schleifetobelweg 20, 8810 Horgen, ZH;17.09.2022 11:44;4;84;0;2100;25;47.25609589;8.5975914;295;Horgen;22992;745.76711;29.46242171;10294;90000;168.325898
1662023780-1097;Kalkofenstr. 25, 8810 Horgen, ZH;17.09.2022 11:44;2.5;62;0;1535;24.76;47.24735641;8.607347488;295;Horgen;22992;745.76711;29.46242171;10294;90000;249.6062872
1662023813-1366;Seegartenstrasse 68a, 8810 Horgen, ZH;17.09.2022 11:44;3.5;106;0;4590;43.3;47.2659111;8.589883804;295;Horgen;22992;745.76711;29.46242171;10294;90000;328.6138491
1662023810-1331;Rotbühlstrasse 5, 8810 Horgen, ZH;17.09.2022 11:44;2;50;0;1930;38.6;47.26038361;8.589051247;295;Horgen;22992;745.76711;29.46242171;10294;90000;337.9323536
1662023727-693;Dorfgasse 26, 8810 Horgen, ZH;17.09.2022 11:44;3;74;0;2630;35.54;47.2607193;8.599367142;295;Horgen;22992;745.76711;29.46242171;10294;90000;89.17445099
1662023755-910;Neugasse 19, 8810 Horgen, ZH;17.09.2022 11:44;2.5;52;0;1767;33.98;47.25801086;8.588834763;295;Horgen;22992;745.76711;29.46242171;10294;90000;589.2304068
1662023698-465;Seestrasse 148, 8810 Horgen, ZH;17.09.2022 11:44;1.5;38;0;1650;43.42;47.26029587;8.597851753;295;Horgen;22992;745.76711;29.46242171;10294;90000;45.46688572
1662023810-1332;Einsiedlerstrasse 2, 8942 Oberrieden, ZH;17.09.2022 11:44;3;57;0;1542;27.05;47.27005768;8.581959724;295;Horgen;22992;745.76711;29.46242171;10294;90000;693.838101
1662023689-394;8810 Horgen, ZH;17.09.2022 11:44;4.5;125;0;5390;43.12;47.23668289;8.618281364;295;Horgen;22992;745.76711;29.46242171;10294;90000;1218.147771
1662023774-1050;Drusbergstrasse 21, 8810 Horgen, ZH;17.09.2022 11:44;3.5;76;0;1900;25;47.25375366;8.597693443;295;Horgen;22992;745.76711;29.46242171;10294;90000;427.6116113
1662023727-690;Waidlistrasse 82, 8810 Horgen, ZH;17.09.2022 11:44;3.5;86;0;2400;27.91;47.25424576;8.613272667;295;Horgen;22992;745.76711;29.46242171;10294;90000;96.87149214
1662023749-850;Einsiedlerstrasse 226, 8810 Horgen, ZH;17.09.2022 11:44;3.5;93;0;2279;24.51;47.25436783;8.598150253;295;Horgen;22992;745.76711;29.46242171;10294;90000;364.9993688
1662023686-377;Wassergass 21, 8810 Horgen, ZH;17.09.2022 11:44;3.5;78;0;1950;25;47.24681473;8.611521721;295;Horgen;22992;745.76711;29.46242171;10294;90000;316.383354
1662023692-417;Bärenweidstrasse 12, 8833 Samstagern, ZH;17.09.2022 11:44;3.5;74;0;1715;23.18;47.1935997;8.679973602;138;Richterswil;13632;1810.358566;19.47623239;4293;87950.12552;1161.627935
1662023720-639;Zugerstrasse 36, 8805 Richterswil, ZH;17.09.2022 11:44;4.5;81;0;1820;22.47;47.20524216;8.701800346;138;Richterswil;13632;1810.358566;19.47623239;4293;87950.12552;258.7319659
1662023798-1225;Bodenstrasse 21, 8805 Richterswil, ZH;17.09.2022 11:44;3.5;73;0;1786;24.47;47.20782852;8.695242882;138;Richterswil;13632;1810.358566;19.47623239;4293;87950.12552;315.7176393
1662023717-611;Sternen 1, 8833 Samstagern, ZH;17.09.2022 11:44;4.5;150;0;3050;20.33;47.19702911;8.690900803;138;Richterswil;13632;1810.358566;19.47623239;4293;87950.12552;916.3767302
1662023755-903;Feldstr. 19, 8805 Richterswil, ZH;17.09.2022 11:44;3.5;86;0;1950;22.67;47.20923233;8.689154625;138;Richterswil;13632;1810.358566;19.47623239;4293;87950.12552;734.5444485
1662023711-572;Reidholzstrasse 28a, 8805 Richterswil, ZH;17.09.2022 11:44;4;105;0;2020;19.24;47.21195984;8.694021225;138;Richterswil;13632;1810.358566;19.47623239;4293;87950.12552;722.973601
1662023686-376;Obermülistrasse 39, 8320 Fehraltorf, ZH;17.09.2022 11:44;4.5;111;0;1980;17.84;47.38801956;8.747424126;172;Fehraltorf;6485;684.7940866;18.22667695;4271;79045.18341;391.8814415
1662023780-1093;Grundstrasse 18, 8320 Fehraltorf, ZH;17.09.2022 11:44;4.5;115;0;2450;21.3;47.3876915;8.757163048;172;Fehraltorf;6485;684.7940866;18.22667695;4271;79045.18341;514.3767431
1662023764-961;Mülistrasse 17, 8320 Fehraltorf, ZH;17.09.2022 11:44;4.5;114;0;2480;21.75;47.39019012;8.743782997;172;Fehraltorf;6485;684.7940866;18.22667695;4271;79045.18341;335.2139323
1662023804-1286;Am Wildbach 7, 8320 Fehraltorf, ZH;17.09.2022 11:44;5.5;190;0;3450;18.16;47.38938522;8.744006157;172;Fehraltorf;6485;684.7940866;18.22667695;4271;79045.18341;413.4470449
1662023810-1336;Am Burenbüel 7, 8320 Fehraltorf, ZH;17.09.2022 11:44;3.5;85;0;1850;21.76;47.38367081;8.759480476;172;Fehraltorf;6485;684.7940866;18.22667695;4271;79045.18341;664.5250399
1662023783-1126;Grundstrasse 24, 8320 Fehraltorf, ZH;17.09.2022 11:44;4.5;115;0;2480;21.57;47.38648224;8.758552551;172;Fehraltorf;6485;684.7940866;18.22667695;4271;79045.18341;570.3236522
1662023711-554;Mülistr. 2, 8320 Fehraltorf, ZH;17.09.2022 11:44;3;76;0;1495;19.67;47.39110947;8.744977951;172;Fehraltorf;6485;684.7940866;18.22667695;4271;79045.18341;354.4268926
1662023801-1269;Büelstrasse 1, 8132 Egg b. Zürich, ZH;17.09.2022 11:44;3.5;109;0;2690;24.68;47.30327988;8.688574791;192;Egg;8796;605.3682037;19.91814461;2469;95135.11251;181.8513271
1662023733-735;Bächelacherstrasse 9, 8132 Hinteregg, ZH;17.09.2022 11:44;3.5;81;0;1680;20.74;47.30830383;8.680372238;192;Egg;8796;605.3682037;19.91814461;2469;95135.11251;440.2297351
1662023717-616;Leestrasse 22, 8132 Egg b. Zürich, ZH;17.09.2022 11:44;4;96;0;1980;20.62;47.29230499;8.696821213;192;Egg;8796;605.3682037;19.91814461;2469;95135.11251;1222.489063
1662023758-916;Forchstrasse 185A, 8132 Hinteregg, ZH;17.09.2022 11:44;5.5;170;0;2930;17.24;47.30646515;8.682995796;192;Egg;8796;605.3682037;19.91814461;2469;95135.11251;155.4596478
1662023777-1065;Boulevard Lilienthal 5, 8152 Opfikon, ZH;17.09.2022 11:44;2.5;46;0;1630;35.43;47.42422867;8.562675476;66;Opfikon;21014;3759.21288;44.9129152;19226;71457.08411;79.90709561
