web-scraper-order,address_raw,datetime,rooms,area,luxurious,price_per_m2,lat,lon
1662023695-433,"Sunnenbergstrasse 15, 8633 Wolfhausen, ZH",2022-09-07 09:00:00,3.5,122,1,26.07,47.255714416503906,8.804975509643555
1662023745-820,"Lavaterstr. 63, 8002 Zürich, ZH",2022-09-07 09:00:00,2.5,78,0,48.21,47.36137771606445,8.53333854675293
1662023742-807,"Langfurrenstrasse 5c, 8623 Wetzikon ZH, ZH",2022-09-07 09:00:00,5.5,115,0,24.87,47.32863235473633,8.810400009155273
1662023804-1290,"Sandbuckweg 5A, 8157 Dielsdorf, ZH",2022-09-07 09:00:00,3.5,74,0,29.26,47.47749328613281,8.456284523010254
1662023739-771,"Parkring 59, 8002 Zürich, ZH",2022-09-07 09:00:00,5.5,195,1,35.38,47.36689758300781,8.528817176818848
1662023707-544,"Ifangweg 1, 8610 Uster, ZH",2022-09-07 09:00:00,2.0,47,0,29.79,47.35888671875,8.71379566192627
1662023720-640,"Flobotstrasse 2, 8044 Zürich, ZH",2022-09-07 09:00:00,2.5,59,0,49.49,47.37957763671875,8.570284843444824
1662023686-384,"Hinterbergstrasse 57, 8044 Zürich, ZH",2022-09-07 09:00:00,3.0,75,0,40.04,47.382015228271484,8.556857109069824
1662023758-929,"Frohbergstr. 7, 8162 Steinmaur, ZH",2022-09-07 09:00:00,4.5,97,0,18.25,47.48908615112305,8.448234558105469
1662023727-685,"8306 Brüttisellen, ZH",2022-09-07 09:00:00,4.5,124,0,35.97,47.42464065551758,8.63316535949707
1662023755-900,"8620 Wetzikon ZH, ZH",2022-09-07 09:00:00,3.5,123,1,27.24,47.31372833251953,8.828516006469727
1662023733-725,"Wülflingerstrasse 48, 8400 Winterthur, ZH",2022-09-07 09:00:00,2.5,55,0,27.09,47.506534576416016,8.714888572692871
1662023720-644,"Burstwiesenstr. 16, 8606 Greifensee, ZH",2022-09-07 09:00:00,4.0,80,0,24.56,47.36891555786133,8.680346488952637
1662023789-1164,"Nansenstrasse 7, 8050 Zürich, ZH",2022-09-07 09:00:00,2.5,58,0,30.69,47.410762786865234,8.545214653015137
1662023739-782,"Bergacherstrasse 4, 8630 Rüti ZH, ZH",2022-09-07 09:00:00,1.0,34,0,25.0,47.250694274902344,8.85564136505127
1662023707-540,"Aronenweg 9, 8618 Oetwil am See, ZH",2022-09-07 09:00:00,3.5,78,0,21.54,47.276031494140625,8.718671798706055
1662023707-538,"Pilatusstrasse 14, 8330 Pfäffikon ZH, ZH",2022-09-07 09:00:00,2.5,75,0,26.13,47.364253997802734,8.783860206604004
1662023730-704,"Dorfstrasse 84, 8954 Geroldswil, ZH",2022-09-07 09:00:00,4.5,100,0,18.8,47.42408752441406,8.411906242370605
1662023771-1023,"Soodstrasse 13, 8134 Adliswil, ZH",2022-09-07 09:00:00,4.0,90,0,22.56,47.313804626464844,8.526074409484863
1662023767-998,"Steinmürlistrasse 42, 8953 Dietikon, ZH",2022-09-07 09:00:00,3.5,81,0,23.46,47.40464401245117,8.392952919006348
1662023793-1200,"Obere Leihofstrasse 13, 8820 Wädenswil, ZH",2022-09-07 09:00:00,3.5,75,0,28.33,47.22357177734375,8.666900634765625
1662023692-420,"Zürcherstrasse 10, 8193 Eglisau, ZH",2022-09-07 09:00:00,2.5,58,0,26.55,47.57310104370117,8.523083686828613
1662023764-980,"Wehntalerstrasse 223, 8057 Zürich, ZH",2022-09-07 09:00:00,3.0,52,0,30.77,47.40802001953125,8.529781341552734
1662023711-561,"Schulstrasse 26a, 8330 Pfäffikon ZH, ZH",2022-09-07 09:00:00,1.0,19,0,57.89,47.36679458618164,8.781128883361816
1662023720-634,"Blumenbergstrasse 7, 8633 Wolfhausen, ZH",2022-09-07 09:00:00,4.0,87,0,19.43,47.254878997802734,8.793745994567871
1662023730-701,"Pfruendmattstrasse 11, 8932 Mettmenstetten, ZH",2022-09-07 09:00:00,3.5,89,0,23.37,47.24324035644531,8.465059280395508
1662023767-1007,"Baumackerstrasse 47, 8050 Zürich, ZH",2022-09-07 09:00:00,1.0,15,0,82.67,47.40944290161133,8.542278289794922
1662023698-474,"Goethestr. 26, 8712 Stäfa, ZH",2022-09-07 09:00:00,2.5,58,1,32.24,47.240726470947266,8.724349021911621
1662023807-1298,"Grünaustrasse 12, 8953 Dietikon, ZH",2022-09-07 09:00:00,3.5,92,0,26.52,47.4099235534668,8.403440475463867
1662023786-1135,"Unterbühlenstr. 3B, 8610 Uster, ZH",2022-09-07 09:00:00,3.5,72,0,23.47,47.344234466552734,8.707965850830078
1662023704-520,"Zwischenbächen 139, 8048 Zürich, ZH",2022-09-07 09:00:00,1.5,35,0,53.43,47.380489349365234,8.4798002243042
1662023780-1100,"Hauflandweg 18, 8605 Gutenswil, ZH",2022-09-07 09:00:00,3.5,70,0,22.09,47.38703155517578,8.718835830688477
1662023764-971,"Ifangweg 8, 8610 Uster, ZH",2022-09-07 09:00:00,3.0,68,0,19.34,47.35796356201172,8.714289665222168
1662023733-731,"St. Gallerstrasse 42d, 8400 Winterthur, ZH",2022-09-07 09:00:00,3.5,86,0,28.14,47.49749755859375,8.738823890686035
1662023777-1057,"Wartstr. 28, 8400 Winterthur, ZH",2022-09-07 09:00:00,1.0,26,0,44.04,47.50136184692383,8.720966339111328
1662023752-875,"Brunnenrain 18, 8415 Berg am Irchel, ZH",2022-09-07 09:00:00,3.5,97,0,18.09,47.5706901550293,8.596415519714355
1662023689-402,"Dorfstrasse 31, 8196 Wil ZH, ZH",2022-09-07 09:00:00,4.5,109,0,21.83,47.60468292236328,8.508256912231445
1662023698-468,"Hallwylstrasse 84, 8004 Zürich, ZH",2022-09-07 09:00:00,2.5,75,0,43.2,47.369815826416016,8.526166915893555
1662023692-429,"Im Riet 14, 8427 Freienstein, ZH",2022-09-07 09:00:00,4.5,91,0,19.23,47.53696060180664,8.580428123474121
1662023711-553,"8192 Glattfelden, ZH",2022-09-07 09:00:00,3.5,88,0,21.25,47.56193923950195,8.499773979187012
1662023801-1250,"Ankerstr. 114 / Müllerstr. 71, 8004 Zürich, ZH",2022-09-07 09:00:00,2.0,87,0,61.49,,
1662023777-1079,"Seestrasse 65, 8810 Horgen, ZH",2022-09-07 09:00:00,4.5,114,0,25.53,47.264278411865234,8.589810371398926
1662023789-1172,"Pfingstweidstrasse 104 E, 8005 Zürich, ZH",2022-09-07 09:00:00,2.0,80,1,34.88,47.39086151123047,8.509053230285645
1662023752-867,"Altwiesenstrasse 346, 8051 Zürich, ZH",2022-09-07 09:00:00,3.5,76,0,26.18,47.399959564208984,8.590506553649902
1662023736-766,"Steigstr. 3, 8610 Uster, ZH",2022-09-07 09:00:00,4.5,106,0,25.19,47.34431076049805,8.730061531066895
1662023727-691,"8330 Pfäffikon ZH, ZH",2022-09-07 09:00:00,3.5,91,0,23.02,47.364013671875,8.782011032104492
1662023692-417,"Bärenweidstrasse 12, 8833 Samstagern, ZH",2022-09-07 09:00:00,3.5,74,0,23.18,47.193599700927734,8.679973602294922
1662023686-376,"Obermülistrasse 39, 8320 Fehraltorf, ZH",2022-09-07 09:00:00,4.5,111,0,17.84,47.38801956176758,8.747424125671387
1662023801-1269,"Büelstrasse 1, 8132 Egg b. Zürich, ZH",2022-09-07 09:00:00,3.5,109,0,24.68,47.303279876708984,8.68857479095459
1662023777-1065,"Boulevard Lilienthal 5, 8152 Opfikon, ZH",2022-09-07 09:00:00,2.5,46,0,35.43,47.42422866821289,8.562675476074219
1662023736-767,"Frohburgweg 5, 8180 Bülach, ZH",2022-09-07 09:00:00,4.5,94,0,21.38,47.52424621582031,8.539907455444336
1662023761-945,"Badenerstrasse 250, 8004 Zürich, ZH",2022-09-07 09:00:00,1.5,25,0,84.0,47.3759880065918,8.516037940979004
1662023704-506,"Pfarrhausstrasse 18a, 8344 Bäretswil, ZH",2022-09-07 09:00:00,2.0,110,1,19.55,47.337013244628906,8.853507041931152
1662023730-706,"8810 Horgen, ZH",2022-09-07 09:00:00,2.5,50,0,39.6,47.2366828918457,8.618281364440918
1662023774-1056,"Schöntalstrasse 27, 8004 Zürich, ZH",2022-09-07 09:00:00,2.5,48,0,66.46,47.37080764770508,8.526028633117676
1662023692-427,"8421 Dättlikon, ZH",2022-09-07 09:00:00,4.5,130,0,22.46,47.52411651611328,8.624934196472168
1662023686-363,"Pappelstr. 22, 8305 Dietlikon, ZH",2022-09-07 09:00:00,3.5,85,0,21.44,47.41817855834961,8.62304973602295
1662023736-763,"Riedmühlestr. 7b, 8305 Dietlikon, ZH",2022-09-07 09:00:00,4.5,102,0,28.43,47.426753997802734,8.621732711791992
1662023720-641,"Sandgruebstrasse 9, 8193 Eglisau, ZH",2022-09-07 09:00:00,4.5,128,0,17.54,47.56932067871094,8.523771286010742
1662023761-941,"Am Wasser 161, 8049 Zürich, ZH",2022-09-07 09:00:00,1.5,32,0,65.62,47.399436950683594,8.495816230773926
1662023786-1149,"Freudenbergstrasse 94, 8044 Zürich, ZH",2022-09-07 09:00:00,4.5,128,0,51.8,47.384132385253906,8.55653190612793
1662023692-418,"Zürcherstrasse 10, 8193 Eglisau, ZH",2022-09-07 09:00:00,3.5,83,0,23.37,47.57310104370117,8.523083686828613
1662023755-909,"Lavaterstr. 63, 8002 Zürich, ZH",2022-09-07 09:00:00,2.5,79,0,44.3,47.36137771606445,8.53333854675293
1662023804-1278,"Altburgstr. 19, 8105 Regensdorf, ZH",2022-09-07 09:00:00,4.5,106,0,24.53,47.42815399169922,8.47533893585205
1662023720-629,"Allmendstrasse 29, 8180 Bülach, ZH",2022-09-07 09:00:00,3.5,85,0,26.12,47.514713287353516,8.533659934997559
1662023804-1294,"Unterdorfstrasse 1,, 8113 Boppelsen, ZH",2022-09-07 09:00:00,3.0,130,0,14.92,47.470767974853516,8.401324272155762
1662023714-590,"Meientalstrasse 65, 8048 Zürich, ZH",2022-09-07 09:00:00,2.5,82,0,35.06,47.385841369628906,8.478418350219727
1662023730-707,"Walderstrasse 103, 8630 Rüti ZH, ZH",2022-09-07 09:00:00,3.5,78,0,22.56,47.26651382446289,8.867326736450195
1662023736-746,"Landvogt-Waser-Strasse 67, 8405 Winterthur, ZH",2022-09-07 09:00:00,2.5,62,0,24.19,47.48586654663086,8.765941619873047
1662023810-1341,"Stallikonerstr. 107, 8903 Birmensdorf ZH, ZH",2022-09-07 09:00:00,4.5,98,0,20.61,47.35337448120117,8.460884094238281
1662023717-621,"Unter-Rüti 2, 8487 Zell ZH, ZH",2022-09-07 09:00:00,3.5,80,0,23.12,47.444488525390625,8.816344261169434
1662023798-1227,"Lindenstrasse 34, 8155 Niederhasli, ZH",2022-09-07 09:00:00,3.5,88,0,18.86,47.48217010498047,8.489461898803711
1662023761-955,"Alte Landstrasse 99, 8804 Au ZH, ZH",2022-09-07 09:00:00,3.5,75,0,27.0,47.247032165527344,8.634622573852539
1662023793-1198,"Poststr. 3, 8610 Uster, ZH",2022-09-07 09:00:00,4.5,132,0,22.58,47.34947967529297,8.718282699584961
1662023742-806,"Dufaux-Strasse 47, 8152 Opfikon, ZH",2022-09-07 09:00:00,4.5,115,0,46.09,47.42148971557617,8.561450958251953
1662023813-1353,"Rechweg 14, 8600 Dübendorf, ZH",2022-09-07 09:00:00,2.5,95,1,29.37,47.400672912597656,8.62859058380127
1662023801-1270,"Affolternstrasse 154, 8050 Zürich, ZH",2022-09-07 09:00:00,5.5,195,1,21.54,47.4113655090332,8.532044410705566
1662023739-784,"Wingertlistrasse 9, 8405 Winterthur, ZH",2022-09-07 09:00:00,3.5,70,0,24.14,47.49017333984375,8.761757850646973
1662023793-1186,"Rosenstrasse 1, 8623 Wetzikon ZH, ZH",2022-09-07 09:00:00,4.5,109,0,21.93,47.33300018310547,8.808183670043945
1662023711-565,"Seestrasse 33, 8800 Thalwil, ZH",2022-09-07 09:00:00,5.5,128,0,25.78,47.28500747680664,8.576184272766113
1662023707-541,"Eichhölzlistrasse 38, 8192 Glattfelden, ZH",2022-09-07 09:00:00,4.5,76,0,21.71,47.55503463745117,8.505518913269043
1662023777-1075,"Bahnhofstr. 59, 8902 Urdorf, ZH",2022-09-07 09:00:00,4.5,86,0,24.53,47.38587951660156,8.427583694458008
1662023786-1131,"Seestrasse 361, 8038 Zürich, ZH",2022-09-07 09:00:00,1.0,45,0,27.02,47.345306396484375,8.533795356750488
1662023727-694,"Säntisstrasse 6a, 8942 Oberrieden, ZH",2022-09-07 09:00:00,3.5,79,0,33.54,47.2718505859375,8.575986862182617
1662023739-775,"Hulfteggstrasse 16, 8400 Winterthur, ZH",2022-09-07 09:00:00,4.0,76,0,21.91,47.49134826660156,8.753072738647461
1662023730-716,"Hohlstr. 509, 8048 Zürich, ZH",2022-09-07 09:00:00,2.5,73,0,32.58,47.388973236083984,8.493876457214355
1662023798-1239,"Feldblumenstrasse 10, 8048 Zürich, ZH",2022-09-07 09:00:00,2.5,65,0,38.0,47.388099670410156,8.482545852661133
1662023689-393,"Otelfingerstrasse, 8115 Hüttikon, ZH",2022-09-07 09:00:00,2.5,80,0,26.25,47.446380615234375,8.387629508972168
1662023695-453,"Letzigraben 171, 8047 Zürich, ZH",2022-09-07 09:00:00,3.5,68,0,39.41,47.37362289428711,8.495223999023438
1662023686-365,"Zelglistrasse 9, 8311 Brütten, ZH",2022-09-07 09:00:00,3.5,85,0,26.94,47.47028350830078,8.673417091369629
1662023698-479,"Obermattstrasse 82, 8330 Pfäffikon ZH, ZH",2022-09-07 09:00:00,2.0,60,0,26.92,47.370731353759766,8.782037734985352
1662023727-681,"Schleifetobelweg 20, 8810 Horgen, ZH",2022-09-07 09:00:00,4.0,84,0,25.0,47.25609588623047,8.597591400146484
1662023695-436,"Fritz Fleiner-Weg 11, 8044 Zürich, ZH",2022-09-07 09:00:00,2.5,84,0,42.14,47.38129806518555,8.56221866607666
1662023711-568,"Pfarrhausstrasse 28, 8424 Embrach, ZH",2022-09-07 09:00:00,4.5,104,0,21.22,47.50019073486328,8.597267150878906
1662023774-1040,"Seuzacherstr. 9a, 8400 Winterthur, ZH",2022-09-07 09:00:00,2.5,66,1,28.79,47.51836013793945,8.72063159942627
1662023692-413,"Balgriststrasse 37/39, 8008 Zürich, ZH",2022-09-07 09:00:00,2.5,69,0,39.28,,
1662023704-518,"Kirchstrasse 19, 8245 Feuerthalen, ZH",2022-09-07 09:00:00,5.0,95,0,17.37,47.691505432128906,8.637733459472656
1662023786-1150,"Uhlandstrasse 6, 8037 Zürich, ZH",2022-09-07 09:00:00,3.5,69,0,66.67,47.394466400146484,8.5289306640625
1662023714-581,"Frohburgstrasse 303, 8057 Zürich, ZH",2022-09-07 09:00:00,1.5,29,0,50.0,47.40309143066406,8.557792663574219
1662023810-1344,"Grünaustrasse 10, 8953 Dietikon, ZH",2022-09-07 09:00:00,1.5,61,0,28.36,47.40949249267578,8.403727531433105
1662023698-461,"Heuelsteig 3&7, 8032 Zürich, ZH",2022-09-07 09:00:00,4.5,119,0,41.93,,
1662023752-874,"Speerstrasse 12, 8637 Laupen ZH, ZH",2022-09-07 09:00:00,4.0,73,0,18.77,47.26631164550781,8.920787811279297
1662023807-1317,"Hätzlergasse 28, 8048 Zürich, ZH",2022-09-07 09:00:00,1.5,40,0,38.12,47.39047622680664,8.468478202819824
1662023720-627,"Allmendstrasse 29, 8180 Bülach, ZH",2022-09-07 09:00:00,1.5,44,0,36.25,47.514713287353516,8.533659934997559
1662023707-550,"Maurstrasse 2, 8117 Fällanden, ZH",2022-09-07 09:00:00,3.5,100,0,27.0,47.37052536010742,8.639469146728516
1662023714-588,"Waidstrasse 3, 8307 Effretikon, ZH",2022-09-07 09:00:00,1.0,27,0,40.0,47.430694580078125,8.685787200927734
1662023739-780,"Dürntnerstrasse 43a, 8340 Hinwil, ZH",2022-09-07 09:00:00,2.5,66,0,28.53,47.298667907714844,8.841131210327148
1662023758-923,"Schulstrasse 103, 8105 Regensdorf, ZH",2022-09-07 09:00:00,4.5,108,0,24.72,47.435638427734375,8.4674654006958
1662023701-483,"8048 Zürich, ZH",2022-09-07 09:00:00,3.5,110,0,26.18,47.38191604614258,8.482671737670898
1662023786-1130,"Im Grund 9, 10, 8442 Hettlingen, ZH",2022-09-07 09:00:00,3.5,83,0,21.08,,
1662023695-439,"Steinackerstrasse 25, 8330 Pfäffikon ZH, ZH",2022-09-07 09:00:00,4.5,84,0,23.21,47.37303924560547,8.780903816223145
1662023686-378,"Badenerstrasse 9, 8107 Buchs ZH, ZH",2022-09-07 09:00:00,3.5,114,0,17.42,47.45781326293945,8.436094284057617
1662023810-1322,"8001 Zürich, ZH",2022-09-07 09:00:00,5.0,80,0,36.25,47.368934631347656,8.54139232635498
1662023777-1066,"Rosenstrasse 6, 8152 Glattbrugg, ZH",2022-09-07 09:00:00,4.5,107,0,23.36,47.43177032470703,8.564457893371582
1662023711-570,"Hauptstrasse 72, 8246 Langwiesen, ZH",2022-09-07 09:00:00,2.5,55,0,18.09,47.68478012084961,8.659786224365234
1662023813-1345,"Ankerstr. 114 / Müllerstr. 71, 8004 Zürich, ZH",2022-09-07 09:00:00,3.5,96,0,60.42,,
1662023795-1221,"Carmenstrasse 16, 8032 Zürich, ZH",2022-09-07 09:00:00,3.5,82,0,43.29,47.369754791259766,8.561036109924316
1662023733-723,"Rebenstrasse 42, 8307 Effretikon, ZH",2022-09-07 09:00:00,3.5,80,0,31.62,47.425533294677734,8.701360702514648
1662023801-1263,"Forsterstrasse, 8044 Zürich, ZH",2022-09-07 09:00:00,4.0,120,0,27.33,47.38007736206055,8.564464569091797
1662023704-526,"Hauptstrasse 1d, 8544 Attikon, ZH",2022-09-07 09:00:00,4.5,124,0,24.76,47.53608703613281,8.795804023742676
1662023692-422,"8635 Dürnten, ZH",2022-09-07 09:00:00,5.0,145,0,25.66,47.27986526489258,8.861824035644531
1662023783-1115,"Bergstrasse 7, 8103 Unterengstringen, ZH",2022-09-07 09:00:00,2.5,53,1,42.26,47.411643981933594,8.448543548583984
1662023720-647,"Im Nippel 8, 8180 Bülach, ZH",2022-09-07 09:00:00,1.5,69,0,27.39,47.51787567138672,8.531757354736328
1662023717-607,"Trottenstrasse 11, 8187 Weiach, ZH",2022-09-07 09:00:00,3.0,88,0,18.75,47.555641174316406,8.440509796142578
1662023689-387,"Winzerstrasse 17, 8953 Dietikon, ZH",2022-09-07 09:00:00,2.0,38,0,47.37,47.400360107421875,8.386734008789062
1662023786-1129,"Meierackerstr. 4, 8610 Uster, ZH",2022-09-07 09:00:00,3.5,98,0,22.35,47.360042572021484,8.716106414794922
1662023745-828,"Gerichtsstrasse 5, 8610 Uster, ZH",2022-09-07 09:00:00,1.0,134,1,23.88,47.350032806396484,8.716350555419922
1662023771-1012,"Rütistr. 28, 8134 Adliswil, ZH",2022-09-07 09:00:00,1.0,32,0,35.0,47.30426788330078,8.529253959655762
1662023780-1097,"Kalkofenstr. 25, 8810 Horgen, ZH",2022-09-07 09:00:00,2.5,62,0,24.76,47.24735641479492,8.60734748840332
1662023774-1052,"Rebhaldenstrasse 71, 8625 Gossau ZH, ZH",2022-09-07 09:00:00,1.0,12,0,45.83,47.30525588989258,8.767916679382324
1662023723-659,"Oberseenerstrasse 77, 8405 Winterthur, ZH",2022-09-07 09:00:00,4.5,121,1,22.48,47.48025131225586,8.771097183227539
1662023739-781,"Langfurrenstrasse 5c, 8623 Wetzikon ZH, ZH",2022-09-07 09:00:00,1.5,38,0,31.18,47.32863235473633,8.810400009155273
1662023752-873,"Scheideggstrasse 8, 8400 Winterthur, ZH",2022-09-07 09:00:00,2.0,54,0,26.85,47.49159622192383,8.750418663024902
1662023801-1258,"Oberhubstrasse 24, 8125 Zollikerberg, ZH",2022-09-07 09:00:00,2.0,100,0,20.8,47.343505859375,8.60700511932373
1662023813-1366,"Seegartenstrasse 68a, 8810 Horgen, ZH",2022-09-07 09:00:00,3.5,106,0,43.3,47.26591110229492,8.589883804321289
1662023727-676,"Im Trichtisal 7, 8053 Zürich, ZH",2022-09-07 09:00:00,3.0,79,0,34.94,47.35511779785156,8.603344917297363
1662023742-795,"Bollstrasse 64, 8405 Winterthur, ZH",2022-09-07 09:00:00,3.5,89,0,26.4,47.48073196411133,8.759271621704102
1662023774-1054,"Scherrerstrasse 8, 8400 Winterthur, ZH",2022-09-07 09:00:00,3.0,67,0,29.7,47.49733352661133,8.74233627319336
1662023686-367,"Kellersgasse 6, 8545 Rickenbach ZH, ZH",2022-09-07 09:00:00,3.5,82,0,24.63,47.551513671875,8.797046661376953
1662023704-522,"Universitätsstrasse 110, 8006 Zürich, ZH",2022-09-07 09:00:00,1.0,19,0,68.95,,
1662023777-1064,"Boulevard Lilienthal 5, 8152 Opfikon, ZH",2022-09-07 09:00:00,2.5,46,0,35.43,47.42422866821289,8.562675476074219
1662023780-1096,"Staffelstrasse 13, 8045 Zürich, ZH",2022-09-07 09:00:00,3.5,110,0,47.0,47.36064529418945,8.52066707611084
1662023798-1244,"Hofibachstrasse 3, 8909 Zwillikon, ZH",2022-09-07 09:00:00,3.5,85,0,23.24,47.28936767578125,8.441304206848145
1662023733-735,"Bächelacherstrasse 9, 8132 Hinteregg, ZH",2022-09-07 09:00:00,3.5,81,0,20.74,47.30830383300781,8.68037223815918
1662023793-1178,"Florastr. 14, 8610 Uster, ZH",2022-09-07 09:00:00,3.5,112,0,19.2,47.34764862060547,8.71961498260498
1662023767-1004,"Spitalstr. 157, 8620 Wetzikon ZH, ZH",2022-09-07 09:00:00,5.5,115,0,18.43,47.32657241821289,8.808747291564941
1662023711-573,"Spranglenstr. 32, 8303 Bassersdorf, ZH",2022-09-07 09:00:00,4.5,148,0,14.76,47.444427490234375,8.618995666503906
1662023795-1217,"Zeughausstr. 29a, 8910 Affoltern am Albis, ZH",2022-09-07 09:00:00,4.5,93,0,21.29,47.2719841003418,8.450772285461426
1662023714-583,"8312 Winterberg ZH, ZH",2022-09-07 09:00:00,4.0,96,0,23.96,47.45626449584961,8.69238567352295
1662023698-475,"Zürcherstrasse 57, 8406 Winterthur, ZH",2022-09-07 09:00:00,1.0,24,0,56.25,47.494544982910156,8.711798667907715
1662023736-760,"Tösstalstrasse 174, 8400 Winterthur, ZH",2022-09-07 09:00:00,3.0,62,0,23.89,47.488746643066406,8.75119686126709
1662023739-779,"Alfred Comte-Strasse 3, 8953 Dietikon, ZH",2022-09-07 09:00:00,3.5,87,0,25.17,47.409637451171875,8.406033515930176
1662023733-742,"Giessereistrasse 12, 8005 Zürich, ZH",2022-09-07 09:00:00,2.5,282,0,26.6,47.390220642089844,8.518072128295898
1662023707-529,"Rebgasse 8, 8004 Zürich, ZH",2022-09-07 09:00:00,2.5,57,0,62.11,47.374168395996094,8.530760765075684
1662023774-1044,"Altburgstr. 15, 8105 Regensdorf, ZH",2022-09-07 09:00:00,2.0,56,0,30.09,47.42799758911133,8.47488021850586
1662023733-734,"Fellenbergstrasse 319, 8047 Zürich, ZH",2022-09-07 09:00:00,3.5,72,0,30.42,47.3751335144043,8.487833023071289
1662023695-437,"Pappelnstr. 14, 8620 Wetzikon ZH, ZH",2022-09-07 09:00:00,2.5,86,0,19.3,47.328514099121094,8.80092716217041
1662023720-636,"Hinter Zünen 11, 8702 Zollikon, ZH",2022-09-07 09:00:00,4.5,122,0,30.16,47.34146499633789,8.574190139770508
1662023780-1081,"Seminarstr. 1, 8006 Zürich, ZH",2022-09-07 09:00:00,3.5,95,0,41.53,,
1662023689-392,"8933 Maschwanden, ZH",2022-09-07 09:00:00,3.5,110,0,17.73,47.23451232910156,8.422947883605957
1662023704-508,"Schulstrasse 175, 8105 Regensdorf, ZH",2022-09-07 09:00:00,4.5,112,0,20.94,47.437828063964844,8.468487739562988
1662023780-1088,"Waldmannstrasse 12 a, 8001 Zürich, ZH",2022-09-07 09:00:00,2.5,59,0,50.51,,
1662023783-1125,"Kirchrain 1A, 8824 Schönenberg ZH, ZH",2022-09-07 09:00:00,5.5,155,0,22.52,47.193382263183594,8.644906997680664
1662023723-662,"Bucheggstrasse 157, 8057 Zürich, ZH",2022-09-07 09:00:00,2.5,52,0,54.62,47.39902114868164,8.540755271911621
1662023813-1351,"Bollstrasse 66, 8405 Winterthur, ZH",2022-09-07 09:00:00,3.5,88,0,26.65,47.480735778808594,8.759693145751953
1662023813-1362,"Kirchgasse 2, 8353 Elgg, ZH",2022-09-07 09:00:00,3.0,50,0,28.6,47.489471435546875,8.8677339553833
1662023733-733,"Sandstrasse 1, 8180 Bülach, ZH",2022-09-07 09:00:00,4.5,122,0,26.23,47.52568817138672,8.541040420532227
1662023795-1220,"Grimselstrasse 19, 8048 Zürich, ZH",2022-09-07 09:00:00,2.0,47,0,30.09,47.385684967041016,8.489228248596191
1662023813-1364,"Viktoriastrasse 29, 8057 Zürich, ZH",2022-09-07 09:00:00,1.5,23,0,67.48,47.40406799316406,8.55045223236084
1662023749-855,"Pionierstr. 22, 8400 Winterthur, ZH",2022-09-07 09:00:00,1.0,89,0,21.35,47.49772262573242,8.719924926757812
1662023736-764,"Gladbachstr. 120, 8044 Zürich, ZH",2022-09-07 09:00:00,3.0,74,0,32.73,47.37733840942383,8.558547019958496
1662023730-711,"Moosäckerstrasse 72, 8105 Regensdorf, ZH",2022-09-07 09:00:00,1.0,20,0,55.0,47.43935012817383,8.456944465637207
1662023793-1195,"Schaffhauserstrasse 456, 8052 Zürich, ZH",2022-09-07 09:00:00,4.5,126,0,26.83,47.418052673339844,8.546833038330078
1662023771-1020,"Langackerweg 13, 8155 Niederhasli, ZH",2022-09-07 09:00:00,3.0,63,0,29.44,47.483028411865234,8.48688793182373
1662023689-403,"Panoramastrasse 3, 8903 Birmensdorf ZH, ZH",2022-09-07 09:00:00,4.5,90,0,30.33,47.36023712158203,8.434920310974121
1662023752-888,"Zürcherstrasse 54, 8406 Winterthur, ZH",2022-09-07 09:00:00,3.5,103,0,21.75,47.49507141113281,8.711730003356934
1662023698-464,"Fangletenstrasse 16, 8180 Bülach, ZH",2022-09-07 09:00:00,5.5,121,0,24.22,47.52791976928711,8.538370132446289
1662023761-953,"Jägerstrasse 59, 8406 Winterthur, ZH",2022-09-07 09:00:00,2.5,61,0,31.64,47.4949951171875,8.713829040527344
1662023752-879,"Badenerstrasse  250, 8004 Zürich, ZH",2022-09-07 09:00:00,2.5,58,0,50.0,47.3759880065918,8.516037940979004
1662023777-1058,"Hardturmstr. 5, 8005 Zürich, ZH",2022-09-07 09:00:00,2.5,92,0,47.93,47.39119338989258,8.519919395446777
1662023801-1261,"Alte Landstrasse, 8955 Oetwil an der Limmat, ZH",2022-09-07 09:00:00,4.5,120,0,20.67,,
1662023771-1029,"Forenackerstrasse 6, 8246 Langwiesen, ZH",2022-09-07 09:00:00,4.5,95,0,16.16,47.6853141784668,8.654377937316895
1662023701-504,"8105 Watt, ZH",2022-09-07 09:00:00,5.5,86,1,29.07,47.444305419921875,8.485084533691406
1662023733-743,"Badenerstrasse 110, 8952 Schlieren, ZH",2022-09-07 09:00:00,4.5,109,0,24.5,47.397884368896484,8.431954383850098
1662023736-768,"Hofwisenstr. 2, 8317 Tagelswangen, ZH",2022-09-07 09:00:00,3.5,111,0,20.27,47.430091857910156,8.669851303100586
1662023761-937,"Bachtelweg 9, 8604 Volketswil, ZH",2022-09-07 09:00:00,4.0,80,0,20.32,47.390411376953125,8.68159294128418
1662023742-809,"Breitenloostrasse 6, 8309 Nürensdorf, ZH",2022-09-07 09:00:00,2.5,64,0,25.0,47.46484375,8.639374732971191
1662023689-401,"Dorfstrasse 31, 8196 Wil ZH, ZH",2022-09-07 09:00:00,3.5,102,0,21.18,47.60468292236328,8.508256912231445
1662023698-480,"Sandrainstrasse 6, 8156 Oberhasli, ZH",2022-09-07 09:00:00,4.5,114,0,21.14,47.46493911743164,8.498687744140625
1662023810-1331,"Rotbühlstrasse 5, 8810 Horgen, ZH",2022-09-07 09:00:00,2.0,50,0,38.6,47.26038360595703,8.589051246643066
1662023730-720,"Parkweg 10, 8134 Adliswil, ZH",2022-09-07 09:00:00,3.5,80,0,30.25,47.322505950927734,8.53007984161377
1662023727-693,"Dorfgasse 26, 8810 Horgen, ZH",2022-09-07 09:00:00,3.0,74,0,35.54,47.260719299316406,8.599367141723633
1662023786-1137,"Glatttalstrasse 106, 8052 Zürich, ZH",2022-09-07 09:00:00,3.5,92,0,21.85,47.430091857910156,8.54483699798584
1662023813-1346,"Rossauerstrasse 25, 8932 Mettmenstetten, ZH",2022-09-07 09:00:00,2.5,74,1,27.46,47.24093246459961,8.467613220214844
1662023720-638,"Bahnhofstrasse 21, 8153 Rümlang, ZH",2022-09-07 09:00:00,3.5,67,0,27.61,47.45305252075195,8.529627799987793
1662023807-1318,"Hurdackerstrasse 10-38, 8600 Dübendorf, ZH",2022-09-07 09:00:00,3.5,81,0,23.46,,
1662023701-499,"Heugasse 2, 8157 Dielsdorf, ZH",2022-09-07 09:00:00,3.0,65,0,28.62,47.48674392700195,8.452263832092285
1662023698-473,"Kronenstrasse 3, 8134 Adliswil, ZH",2022-09-07 09:00:00,4.5,105,0,27.14,47.311859130859375,8.527588844299316
1662023739-787,"Langgrütstrasse 104, 8047 Zürich, ZH",2022-09-07 09:00:00,3.5,82,0,41.1,47.373294830322266,8.495368003845215
1662023758-914,"Endlikerstrasse 106, 8400 Winterthur, ZH",2022-09-07 09:00:00,3.5,97,1,21.75,47.48758316040039,8.752320289611816
1662023764-966,"Pfarrgasse 34, 8704 Herrliberg, ZH",2022-09-07 09:00:00,3.0,94,0,25.59,47.28832244873047,8.61129093170166
1662023720-639,"Zugerstrasse 36, 8805 Richterswil, ZH",2022-09-07 09:00:00,4.5,81,0,22.47,47.20524215698242,8.701800346374512
1662023686-374,"Bergstrasse 5, 8103 Unterengstringen, ZH",2022-09-07 09:00:00,1.5,33,0,46.06,47.41147232055664,8.448328971862793
1662023730-698,"Etzelstrasse 13, 8634 Hombrechtikon, ZH",2022-09-07 09:00:00,4.5,116,0,21.98,47.251243591308594,8.779790878295898
1662023689-389,"Fähnlibrunnenstrasse 5, 8700 Küsnacht ZH, ZH",2022-09-07 09:00:00,1.5,56,0,49.55,47.320709228515625,8.579315185546875
1662023714-595,"8180 Bülach, ZH",2022-09-07 09:00:00,4.5,124,1,26.21,47.5200309753418,8.5663423538208
1662023723-666,"8001 Zürich, ZH",2022-09-07 09:00:00,4.5,137,0,0.12,47.368934631347656,8.54139232635498
1662023727-678,"Zilstr. 7, 8117 Fällanden, ZH",2022-09-07 09:00:00,3.5,93,0,22.12,47.37294387817383,8.63650894165039
1662023807-1311,"Schaffhauserstrasse 473, 8052 Zürich, ZH",2022-09-07 09:00:00,1.0,47,0,24.89,47.420040130615234,8.548195838928223
1662023761-944,"Am Wasser 161, 8049 Zürich, ZH",2022-09-07 09:00:00,1.5,32,0,65.62,47.399436950683594,8.495816230773926
1662023804-1273,"Waldeggstrasse 8, 8405 Winterthur, ZH",2022-09-07 09:00:00,1.5,120,1,14.17,47.48252487182617,8.759597778320312
1662023686-369,"Schärackerstrasse 15, 8330 Pfäffikon ZH, ZH",2022-09-07 09:00:00,4.5,77,0,23.26,47.37131118774414,8.779349327087402
1662023698-459,"General-Guisan-Strasse 25, 8400 Winterthur, ZH",2022-09-07 09:00:00,3.5,68,0,33.53,47.49905014038086,8.733027458190918
1662023755-910,"Neugasse 19, 8810 Horgen, ZH",2022-09-07 09:00:00,2.5,52,0,33.98,47.25801086425781,8.588834762573242
1662023804-1296,"Nordstrasse 135, 8037 Zürich, ZH",2022-09-07 09:00:00,4.0,70,0,42.14,47.39029312133789,8.533413887023926
1662023686-368,"Vorbruggenstrasse 5, 8422 Pfungen, ZH",2022-09-07 09:00:00,3.5,92,0,19.46,47.51858139038086,8.638360023498535
1662023733-721,"Rebenstrasse 42, 8307 Effretikon, ZH",2022-09-07 09:00:00,3.5,73,0,35.34,47.425533294677734,8.701360702514648
1662023786-1138,"Gottfried Keller-Strasse 77, 8400 Winterthur, ZH",2022-09-07 09:00:00,3.5,72,0,24.31,47.50571823120117,8.730652809143066
1662023689-398,"Niederdorfweg 4, 8488 Turbenthal, ZH",2022-09-07 09:00:00,3.5,100,0,18.89,47.44387435913086,8.839629173278809
1662023692-412,"Im Isengrind 11, 8046 Zürich, ZH",2022-09-07 09:00:00,3.5,80,0,26.25,47.42313766479492,8.511916160583496
1662023727-687,"Wilstrasse 2, 8600 Dübendorf, ZH",2022-09-07 09:00:00,3.5,167,0,28.44,47.396759033203125,8.617347717285156
1662023717-613,"Rechweg 14, 8600 Dübendorf, ZH",2022-09-07 09:00:00,2.5,95,0,29.37,47.400672912597656,8.62859058380127
1662023798-1235,"Seestrasse 131, 8820 Wädenswil, ZH",2022-09-07 09:00:00,3.5,140,1,17.82,47.23108673095703,8.672642707824707
1662023686-382,"Hegi 6, 8197 Rafz, ZH",2022-09-07 09:00:00,3.5,77,0,21.95,47.612030029296875,8.536371231079102
1662023698-476,"Rheinfallstrasse 1, 8447 Dachsen, ZH",2022-09-07 09:00:00,5.5,163,0,15.95,47.67106246948242,8.61297607421875
1662023789-1163,"Buechenstrasse 14, 8174 Stadel b. Niederglatt, ZH",2022-09-07 09:00:00,3.5,79,0,23.29,47.531742095947266,8.465595245361328
1662023761-938,"Landvogt-Waser-Strasse 69, 8405 Winterthur, ZH",2022-09-07 09:00:00,4.5,106,1,23.3,47.4857292175293,8.766179084777832
1662023701-494,"Herrligweg 9, 8048 Zürich, ZH",2022-09-07 09:00:00,2.5,60,0,41.67,47.389892578125,8.484477996826172
1662023711-556,"8193 Eglisau, ZH",2022-09-07 09:00:00,1.0,70,0,21.29,47.57356262207031,8.520898818969727
1662023801-1253,"Ankerstr. 114 / Müllerstr. 71, 8004 Zürich, ZH",2022-09-07 09:00:00,2.5,75,0,61.33,,
1662023749-856,"Flobotstrasse 2, 8044 Zürich, ZH",2022-09-07 09:00:00,3.5,111,1,50.63,47.37957763671875,8.570284843444824
1662023736-748,"Giesserstrasse 15, 8406 Winterthur, ZH",2022-09-07 09:00:00,3.0,64,0,20.62,47.49040603637695,8.714092254638672
1662023810-1328,"Melchior Hirzelweg 4, 8910 Affoltern am Albis, ZH",2022-09-07 09:00:00,3.0,71,0,25.49,,
1662023717-603,"Obere Bahnhofstrasse 21, 8910 Affoltern am Albis, ZH",2022-09-07 09:00:00,4.5,100,0,23.3,47.2765007019043,8.448233604431152
1662023771-1021,"Baumschuelwäg 23, 8197 Rafz, ZH",2022-09-07 09:00:00,4.5,113,0,18.05,47.606971740722656,8.543028831481934
1662023795-1219,"Maneggplatz 16, 8041 Zürich, ZH",2022-09-07 09:00:00,2.5,65,0,35.38,47.339881896972656,8.520716667175293
1662023711-567,"Zürcherstrasse 19, 8115 Hüttikon, ZH",2022-09-07 09:00:00,3.5,136,0,19.85,47.44628143310547,8.386636734008789
1662023707-547,"Tannenheimweg 3, 8450 Andelfingen, ZH",2022-09-07 09:00:00,3.0,60,0,23.5,47.594303131103516,8.676922798156738
1662023764-974,"Am Dorfbach 19, 8308 Illnau, ZH",2022-09-07 09:00:00,4.5,104,0,20.24,47.411781311035156,8.721938133239746
1662023804-1274,"Reutlenring 32, 8302 Kloten, ZH",2022-09-07 09:00:00,2.5,65,0,29.69,47.4468879699707,8.592916488647461
1662023745-831,"Dufaux-Strasse 60, 8152 Glattpark (Opfikon), ZH",2022-09-07 09:00:00,4.5,111,0,31.53,47.4204216003418,8.562073707580566
1662023736-751,"Hinterbergstrasse 106, 8044 Zürich, ZH",2022-09-07 09:00:00,2.5,98,1,30.56,47.3851318359375,8.559892654418945
1662023704-519,"Seestrasse 2, 8714 Feldbach, ZH",2022-09-07 09:00:00,2.5,84,0,27.38,47.239471435546875,8.787821769714355
1662023771-1013,"Mühlebachstr. 28, 8008 Zürich, ZH",2022-09-07 09:00:00,2.5,94,0,48.78,47.3648567199707,8.550126075744629
1662023720-646,"Wülflingerstrasse 151a, 8408 Winterthur, ZH",2022-09-07 09:00:00,4.5,119,0,21.71,47.50883865356445,8.704948425292969
1662023813-1360,"Rietweg 29, 8477 Oberstammheim, ZH",2022-09-07 09:00:00,4.5,147,0,16.19,47.63356399536133,8.791045188903809
1662023717-609,"Hänkelbodenstrasse 3, 8173 Neerach, ZH",2022-09-07 09:00:00,3.5,87,0,24.02,47.51447296142578,8.474930763244629
1662023707-531,"Zürcherstrasse 57, 8406 Winterthur, ZH",2022-09-07 09:00:00,1.0,28,0,48.21,47.494544982910156,8.711798667907715
1662023786-1152,"Widmerstrasse 19, 8038 Zürich, ZH",2022-09-07 09:00:00,1.0,44,0,34.66,47.337650299072266,8.53615665435791
1662023717-615,"Florenstrasse 56, 8405 Winterthur, ZH",2022-09-07 09:00:00,2.0,40,0,37.25,47.48488998413086,8.773792266845703
1662023810-1334,"Hurdackerstrasse 10-38, 8600 Dübendorf, ZH",2022-09-07 09:00:00,3.5,81,0,24.07,,
1662023793-1180,"Kleindorfstrasse 117, 8707 Uetikon am See, ZH",2022-09-07 09:00:00,4.5,121,0,23.43,47.267723083496094,8.684910774230957
1662023789-1174,"Albisstrasse 118, 8038 Zürich, ZH",2022-09-07 09:00:00,2.5,62,0,35.81,47.33719253540039,8.52980899810791
1662023752-880,"Badenerstrasse 250, 8004 Zürich, ZH",2022-09-07 09:00:00,2.5,58,0,53.45,47.3759880065918,8.516037940979004
1662023789-1165,"Im Altried 1f, 8051 Zürich, ZH",2022-09-07 09:00:00,3.5,89,0,23.48,47.40413284301758,8.59100341796875
1662023749-847,"Jenatschstrasse 5, 8002 Zürich, ZH",2022-09-07 09:00:00,2.5,60,0,48.33,47.364044189453125,8.53388786315918
1662023771-1009,"Dörflistrasse  112, 8050 Zürich, ZH",2022-09-07 09:00:00,3.5,72,0,45.83,47.410823822021484,8.547832489013672
1662023755-912,"Austrasse 27, 8045 Zürich, ZH",2022-09-07 09:00:00,3.0,68,0,36.76,47.36555099487305,8.519927024841309
1662023742-812,"Pfingstweidstrasse 98, 8005 Zürich, ZH",2022-09-07 09:00:00,2.5,121,1,33.24,47.39064025878906,8.51033878326416
1662023749-860,"Riethofstrasse 10c, 8152 Glattbrugg, ZH",2022-09-07 09:00:00,1.0,30,0,43.33,47.43684005737305,8.567956924438477
1662023810-1329,"Ifangstrasse 33, 8604 Volketswil, ZH",2022-09-07 09:00:00,4.0,80,0,19.05,47.39091110229492,8.67777156829834
1662023761-950,"Albisstrasse 170, 8038 Zürich, ZH",2022-09-07 09:00:00,3.0,67,0,34.25,47.333030700683594,8.529637336730957
1662023804-1276,"Giebeleichstr. 46, 8152 Glattbrugg, ZH",2022-09-07 09:00:00,3.5,80,0,27.34,47.42832946777344,8.564550399780273
1662023761-957,"Oberlandstr. 75, 8610 Uster, ZH",2022-09-07 09:00:00,3.5,92,0,21.35,47.35482406616211,8.715861320495605
1662023789-1160,"Am Giessenpark 15, 8600 Dübendorf, ZH",2022-09-07 09:00:00,3.5,82,0,27.56,47.40132141113281,8.612338066101074
1662023774-1055,"Uhlandstrasse 6, 8037 Zürich, ZH",2022-09-07 09:00:00,3.5,76,0,64.34,47.394466400146484,8.5289306640625
1662023720-630,"Allmendstrasse 27, 8180 Bülach, ZH",2022-09-07 09:00:00,4.5,102,0,25.74,47.514747619628906,8.533862113952637
1662023742-799,"8048 Zürich, ZH",2022-09-07 09:00:00,4.5,135,0,33.26,47.38191604614258,8.482671737670898
1662023755-890,"Seefeldstr. 168, 8008 Zürich, ZH",2022-09-07 09:00:00,4.5,81,0,49.26,47.35554504394531,8.556349754333496
1662023813-1347,"Rotweg 43, 8820 Wädenswil, ZH",2022-09-07 09:00:00,2.5,72,0,31.53,47.22712326049805,8.662622451782227
1662023789-1161,"Nelkenstr. 9, 8330 Pfäffikon ZH, ZH",2022-09-07 09:00:00,3.5,79,0,21.65,47.37203598022461,8.784619331359863
1662023780-1085,"Kirchrain 1, 8824 Schönenberg ZH, ZH",2022-09-07 09:00:00,5.5,111,0,21.17,47.19331359863281,8.645079612731934
1662023798-1248,"Überlandstr. 26, 8953 Dietikon, ZH",2022-09-07 09:00:00,2.0,100,0,22.2,47.40888214111328,8.40406608581543
1662023739-774,"General Wille-Str. 108, 8706 Meilen, ZH",2022-09-07 09:00:00,3.5,87,1,25.52,47.27850341796875,8.615838050842285
1662023717-612,"Goldbühlstrasse 5, 8620 Wetzikon ZH, ZH",2022-09-07 09:00:00,3.5,71,0,26.76,,
1662023783-1110,"Grosswiesenstrasse 22, 8051 Zürich, ZH",2022-09-07 09:00:00,2.0,43,0,29.42,47.403358459472656,8.583616256713867
1662023767-1001,"Nelkenstr. 2, 8330 Pfäffikon ZH, ZH",2022-09-07 09:00:00,4.5,165,0,16.24,47.37173843383789,8.784454345703125
1662023695-449,"Meierwiesenstr. 39, 8107 Buchs ZH, ZH",2022-09-07 09:00:00,3.5,70,0,22.43,47.456851959228516,8.44112777709961
1662023771-1015,"Heiniweg 16, 8404 Winterthur, ZH",2022-09-07 09:00:00,3.5,76,0,20.0,47.519168853759766,8.764608383178711
1662023810-1324,"Bahnhofstr. 6, 8353 Elgg, ZH",2022-09-07 09:00:00,4.5,119,0,17.9,47.497188568115234,8.8644437789917
1662023742-801,"Albisriederplatz 1, 8003 Zürich, ZH",2022-09-07 09:00:00,3.0,68,0,42.65,47.37791061401367,8.510482788085938
1662023698-465,"Seestrasse 148, 8810 Horgen, ZH",2022-09-07 09:00:00,1.5,38,0,43.42,47.26029586791992,8.597851753234863
1662023711-575,"Am Dorfbach 17, 8308 Illnau, ZH",2022-09-07 09:00:00,4.5,104,0,20.69,47.4116325378418,8.722024917602539
1662023707-530,"Alte Zwillikerstrasse 7, 8908 Hedingen, ZH",2022-09-07 09:00:00,3.5,82,0,27.32,47.295799255371094,8.44720458984375
1662023795-1211,"Agnesstrasse 2, 8406 Winterthur, ZH",2022-09-07 09:00:00,4.0,82,0,25.98,47.494720458984375,8.714877128601074
1662023723-654,"8046 Zürich, ZH",2022-09-07 09:00:00,3.5,105,0,18.95,47.42034149169922,8.502178192138672
1662023730-719,"Salamanderweg 3, 8134 Adliswil, ZH",2022-09-07 09:00:00,4.5,108,0,29.26,47.32252502441406,8.530826568603516
1662023777-1067,"Wehntalerstrasse 286, 8046 Zürich, ZH",2022-09-07 09:00:00,4.5,101,0,25.45,47.41147232055664,8.525978088378906
1662023758-913,"Püntenweg 2, 8184 Bachenbülach, ZH",2022-09-07 09:00:00,5.5,128,0,18.75,47.5056266784668,8.548422813415527
1662023771-1014,"Alte Landstrasse 29c, 8193 Eglisau, ZH",2022-09-07 09:00:00,3.5,98,0,25.0,47.57099151611328,8.526036262512207
1662023813-1357,"Herrligweg 9, 8048 Zürich, ZH",2022-09-07 09:00:00,1.5,32,0,64.69,47.389892578125,8.484477996826172
1662023695-452,"Hauptstrasse 1e, 8544 Attikon, ZH",2022-09-07 09:00:00,3.5,109,0,25.23,47.53627014160156,8.795984268188477
1662023736-754,"Mühlestr. 4C, 8912 Obfelden, ZH",2022-09-07 09:00:00,4.5,137,0,18.18,47.263431549072266,8.411825180053711
1662023714-584,"8001 Zürich, ZH",2022-09-07 09:00:00,1.0,28,0,96.39,47.368934631347656,8.54139232635498
1662023730-703,"Friedenstrasse 15a, 8304 Wallisellen, ZH",2022-09-07 09:00:00,4.5,95,0,26.21,47.41529846191406,8.586057662963867
1662023771-1030,"Parkring 57, 8002 Zürich, ZH",2022-09-07 09:00:00,5.0,187,1,47.59,47.36673355102539,8.528434753417969
1662023801-1252,"Ankerstr. 114 / Müllerstr. 71, 8004 Zürich, ZH",2022-09-07 09:00:00,2.5,71,0,61.97,,
1662023739-778,"Bleicherstrasse 43, 8953 Dietikon, ZH",2022-09-07 09:00:00,3.5,79,0,32.91,47.408565521240234,8.395078659057617
1662023707-551,"Ifangweg 7, 8610 Uster, ZH",2022-09-07 09:00:00,2.0,47,0,30.32,47.3585090637207,8.714330673217773
1662023804-1293,"Alte Römerstrasse 24, 8404 Winterthur, ZH",2022-09-07 09:00:00,4.5,115,0,28.0,47.50394821166992,8.748668670654297
1662023758-926,"Lochäckerstrasse 14, 8302 Kloten, ZH",2022-09-07 09:00:00,2.5,63,0,32.22,47.444679260253906,8.590867042541504
1662023755-901,"Seestrasse 412, 8038 Zürich, ZH",2022-09-07 09:00:00,3.5,84,0,37.98,47.34281921386719,8.535778999328613
1662023761-960,"Sulzbergstrasse 8, 8400 Winterthur, ZH",2022-09-07 09:00:00,3.0,60,0,26.83,47.503273010253906,8.7293701171875
1662023711-560,"Lindenhofstr. 4 c, 8180 Bülach, ZH",2022-09-07 09:00:00,4.5,90,0,22.78,,
1662023727-675,"Schlimpergstrasse 16, 8307 Effretikon, ZH",2022-09-07 09:00:00,1.0,26,0,40.58,47.430213928222656,8.68522834777832
1662023767-1008,"Langwiesstrasse, 8050 Zürich, ZH",2022-09-07 09:00:00,3.5,78,0,27.31,47.41059875488281,8.53764533996582
1662023798-1236,"Langenmattstrasse, 8617 Mönchaltorf, ZH",2022-09-07 09:00:00,3.0,70,0,19.86,47.31470489501953,8.720132827758789
1662023752-865,"Langfurrenstrasse 5a, 8623 Wetzikon ZH, ZH",2022-09-07 09:00:00,3.5,90,0,26.5,47.3288459777832,8.80976390838623
1662023720-633,"Am Isenbach 3, 8906 Bonstetten, ZH",2022-09-07 09:00:00,2.5,64,0,23.95,47.315860748291016,8.471536636352539
1662023714-594,"8053 Zürich, ZH",2022-09-07 09:00:00,2.5,60,0,46.33,47.35861587524414,8.578998565673828
1662023783-1121,"Obere Leihofstrasse 11, 8820 Wädenswil, ZH",2022-09-07 09:00:00,4.5,112,0,28.96,47.22368240356445,8.66706371307373
1662023783-1106,"Zentralstr. 6, 8953 Dietikon, ZH",2022-09-07 09:00:00,2.5,59,0,28.14,47.40494155883789,8.400984764099121
1662023727-692,"Püntstrasse 22, 8165 Oberweningen, ZH",2022-09-07 09:00:00,3.5,82,0,22.32,47.49969482421875,8.407127380371094
1662023717-610,"Bänkliholzweg 13, 8335 Hittnau, ZH",2022-09-07 09:00:00,4.5,160,0,15.62,47.37062072753906,8.824464797973633
1662023695-438,"Altmoosstrasse 17, 8157 Dielsdorf, ZH",2022-09-07 09:00:00,3.5,120,0,19.58,47.476966857910156,8.454099655151367
1662023804-1279,"Handgasse 6, 8180 Bülach, ZH",2022-09-07 09:00:00,3.5,68,0,22.5,47.51361846923828,8.5423002243042
1662023686-373,"Bergstrasse 7, 8103 Unterengstringen, ZH",2022-09-07 09:00:00,2.5,59,0,38.81,47.411643981933594,8.448543548583984
1662023749-854,"Rankstr. 14, 8413 Neftenbach, ZH",2022-09-07 09:00:00,5.5,175,0,14.23,47.51865768432617,8.657525062561035
1662023810-1326,"Rebrainstrasse 23, 8106 Adlikon b. Regensdorf, ZH",2022-09-07 09:00:00,2.5,68,0,25.59,47.45013427734375,8.466490745544434
1662023723-670,"Fuhrstr. 12, 8135 Langnau am Albis, ZH",2022-09-07 09:00:00,4.5,92,0,20.45,47.286415100097656,8.541644096374512
1662023807-1315,"Witikonerstrasse 297, 8053 Zürich, ZH",2022-09-07 09:00:00,2.5,63,0,30.95,47.35947799682617,8.585931777954102
1662023774-1038,"Heiselstrasse 120, 8155 Niederhasli, ZH",2022-09-07 09:00:00,3.5,88,0,19.89,47.481788635253906,8.497633934020996
1662023730-710,"Soodstrasse 88, 8041 Zürich, ZH",2022-09-07 09:00:00,4.5,97,0,39.69,47.325828552246094,8.518373489379883
1662023745-829,"Rychenbergstr. 61, 8400 Winterthur, ZH",2022-09-07 09:00:00,2.5,71,0,29.15,47.508514404296875,8.729952812194824
1662023786-1143,"Rheinfallstrasse 1, 8447 Dachsen, ZH",2022-09-07 09:00:00,2.5,65,1,23.85,47.67106246948242,8.61297607421875
1662023704-509,"Dickbucherstrasse 8, 8352 Elsau, ZH",2022-09-07 09:00:00,4.5,102,0,22.75,47.50142288208008,8.819164276123047
1662023701-484,"8192 Glattfelden, ZH",2022-09-07 09:00:00,4.0,90,0,23.61,47.56193923950195,8.499773979187012
1662023804-1285,"Alte Hedingerstrasse 7, 8910 Affoltern am Albis, ZH",2022-09-07 09:00:00,3.5,67,0,21.18,47.282405853271484,8.454839706420898
1662023723-671,"Friedhofstr. 29, 8180 Bülach, ZH",2022-09-07 09:00:00,3.5,66,0,25.45,47.517356872558594,8.546330451965332
1662023701-495,"Hinterdorfstrasse 8, 8422 Pfungen, ZH",2022-09-07 09:00:00,4.5,161,0,16.71,47.51422119140625,8.639961242675781
1662023774-1042,"Bahnhofstr. 8 A, 8353 Elgg, ZH",2022-09-07 09:00:00,3.5,85,0,21.65,,
1662023758-931,"Farmanstr. 31, 8152 Glattpark (Opfikon), ZH",2022-09-07 09:00:00,4.5,110,0,24.64,,
1662023739-769,"Allenbergstrasse 25, 8712 Stäfa, ZH",2022-09-07 09:00:00,3.0,77,0,20.39,47.2496223449707,8.722038269042969
1662023783-1116,"Steinmürlistrasse 3, 8953 Dietikon, ZH",2022-09-07 09:00:00,3.0,64,0,23.44,47.40771484375,8.39243221282959
1662023723-651,"Stallikonerstrasse 64, 8903 Birmensdorf ZH, ZH",2022-09-07 09:00:00,1.0,27,0,40.74,47.355831146240234,8.446781158447266
1662023723-658,"Letzigraben 120, 8047 Zürich, ZH",2022-09-07 09:00:00,1.5,37,0,52.62,47.37661361694336,8.497147560119629
1662023771-1024,"In der Au 50, 8706 Meilen, ZH",2022-09-07 09:00:00,3.5,87,0,21.44,47.27225875854492,8.663619995117188
1662023736-745,"Landvogt-Waser-Strasse 69, 8405 Winterthur, ZH",2022-09-07 09:00:00,2.5,62,0,26.45,47.4857292175293,8.766179084777832
1662023771-1026,"Rothausstrasse 13, 8635 Dürnten, ZH",2022-09-07 09:00:00,4.5,120,0,17.5,47.27626419067383,8.83108139038086
1662023780-1093,"Grundstrasse 18, 8320 Fehraltorf, ZH",2022-09-07 09:00:00,4.5,115,0,21.3,47.387691497802734,8.757163047790527
1662023692-421,"Zürcherstrasse 10, 8193 Eglisau, ZH",2022-09-07 09:00:00,2.5,45,0,27.56,47.57310104370117,8.523083686828613
1662023717-624,"Seestrasse 412, 8038 Zürich, ZH",2022-09-07 09:00:00,3.5,84,0,41.19,47.34281921386719,8.535778999328613
1662023739-791,"Badenerstrasse  250, 8004 Zürich, ZH",2022-09-07 09:00:00,3.5,74,1,56.76,47.3759880065918,8.516037940979004
1662023793-1190,"Melchrütistrasse 13, 8304 Wallisellen, ZH",2022-09-07 09:00:00,2.5,78,0,24.87,47.4168815612793,8.579245567321777
1662023783-1109,"im Haufland 2, 8117 Fällanden, ZH",2022-09-07 09:00:00,4.0,84,0,21.19,47.36838912963867,8.644584655761719
1662023795-1216,"Ziegelstrasse 20, 8038 Zürich, ZH",2022-09-07 09:00:00,3.5,61,0,24.43,47.340782165527344,8.52829647064209
1662023736-747,"8052 Zürich, ZH",2022-09-07 09:00:00,2.5,70,1,47.14,47.41648864746094,8.548842430114746
1662023733-728,"Hochfelderstrasse 17a, 8173 Neerach, ZH",2022-09-07 09:00:00,4.5,119,0,20.25,47.514522552490234,8.477851867675781
1662023727-683,"8105 Regensdorf, ZH",2022-09-07 09:00:00,3.5,75,0,27.09,47.444305419921875,8.485084533691406
1662023733-738,"Buechenstrasse 16, 8174 Stadel b. Niederglatt, ZH",2022-09-07 09:00:00,2.5,67,0,27.76,47.53177261352539,8.465415000915527
1662023771-1031,"Heimstrasse 12, 8953 Dietikon, ZH",2022-09-07 09:00:00,3.5,89,0,24.66,47.409934997558594,8.40533447265625
1662023777-1077,"Soodstrasse 90, 8041 Zürich, ZH",2022-09-07 09:00:00,1.5,231,0,12.94,47.32560729980469,8.51819896697998
1662023686-362,"Hofwiesenstrasse 135, 8057 Zürich, ZH",2022-09-07 09:00:00,3.5,90,0,42.22,47.39908981323242,8.532793998718262
1662023804-1295,"Wiesliacher 16, 8053 Zürich, ZH",2022-09-07 09:00:00,4.0,108,0,22.55,47.354740142822266,8.599199295043945
1662023789-1155,"Brunnenwiesenstr. 40, 8610 Uster, ZH",2022-09-07 09:00:00,3.5,76,0,24.67,47.3547248840332,8.717199325561523
1662023711-558,"Staffelstrasse 13, 8045 Zürich, ZH",2022-09-07 09:00:00,3.5,110,0,53.36,47.36064529418945,8.52066707611084
1662023758-935,"Aathalstrasse 34, 8610 Uster, ZH",2022-09-07 09:00:00,1.0,147,1,16.67,47.345298767089844,8.72988510131836
1662023742-793,"8303 Bassersdorf, ZH",2022-09-07 09:00:00,2.5,78,0,33.33,47.43027877807617,8.638310432434082
1662023780-1099,"Grosswiesenstrasse 2, 8051 Zürich, ZH",2022-09-07 09:00:00,2.0,43,0,28.72,47.4034423828125,8.582525253295898
1662023698-478,"Kirchgasse 4, 8620 Wetzikon ZH, ZH",2022-09-07 09:00:00,2.5,76,0,23.16,47.32634353637695,8.797727584838867
1662023695-455,"Kasernenstrasse 11, 8004 Zürich, ZH",2022-09-07 09:00:00,1.0,59,0,38.47,47.37397003173828,8.531791687011719
1662023698-467,"Im Zentrum 8, 8634 Hombrechtikon, ZH",2022-09-07 09:00:00,2.5,71,0,22.54,47.25228500366211,8.769309997558594
1662023810-1332,"Einsiedlerstrasse 2, 8942 Oberrieden, ZH",2022-09-07 09:00:00,3.0,57,0,27.05,47.270057678222656,8.58195972442627
1662023783-1128,"Zwinglistrasse 35, 8004 Zürich, ZH",2022-09-07 09:00:00,3.0,49,0,54.49,47.378623962402344,8.527950286865234
1662023723-665,"Dorfstrasse 57, 8105 Watt, ZH",2022-09-07 09:00:00,4.5,150,0,24.6,47.43975830078125,8.47802448272705
1662023686-364,"Moosbrunnenstrasse 7, 8426 Lufingen, ZH",2022-09-07 09:00:00,4.5,105,0,17.66,47.48979568481445,8.593528747558594
1662023736-750,"8820 Wädenswil, ZH",2022-09-07 09:00:00,2.5,60,0,41.67,47.22698211669922,8.662249565124512
1662023764-961,"Mülistrasse 17, 8320 Fehraltorf, ZH",2022-09-07 09:00:00,4.5,114,0,21.75,47.39019012451172,8.743782997131348
1662023707-546,"Rigistr. 52, 8006 Zürich, ZH",2022-09-07 09:00:00,4.5,126,0,34.37,47.384803771972656,8.550923347473145
1662023745-826,"Wülflingerstrasse 349, 8408 Winterthur, ZH",2022-09-07 09:00:00,2.5,70,0,22.79,47.51451873779297,8.683442115783691
1662023723-669,"Lindenstrasse 32, 8155 Niederhasli, ZH",2022-09-07 09:00:00,3.5,79,0,23.35,47.48271179199219,8.489599227905273
1662023780-1087,"Zürcherstrasse 236, 8953 Dietikon, ZH",2022-09-07 09:00:00,1.0,26,1,42.31,47.39695739746094,8.425539016723633
1662023742-810,"Feldgüetliweg 88, 8706 Meilen, ZH",2022-09-07 09:00:00,5.5,131,0,24.16,47.27505874633789,8.625059127807617
1662023717-616,"Leestrasse 22, 8132 Egg b. Zürich, ZH",2022-09-07 09:00:00,4.0,96,0,20.62,47.29230499267578,8.696821212768555
1662023736-761,"Tunnelstr. 7, 8330 Pfäffikon ZH, ZH",2022-09-07 09:00:00,3.5,96,0,21.46,47.36857604980469,8.781661033630371
1662023689-386,"Eichstrasse 87a, 8713 Uerikon, ZH",2022-09-07 09:00:00,3.5,76,0,30.26,47.23775863647461,8.74950885772705
1662023755-889,"Schwandenholzstrasse 232, 8046 Zürich, ZH",2022-09-07 09:00:00,4.5,108,0,24.35,47.42425537109375,8.521562576293945
1662023689-394,"8810 Horgen, ZH",2022-09-07 09:00:00,4.5,125,0,43.12,47.2366828918457,8.618281364440918
1662023717-601,"Sankt Gallerstrasse 12, 8353 Elgg, ZH",2022-09-07 09:00:00,4.0,70,0,22.14,,
1662023758-915,"Walchestr. 25, 8006 Zürich, ZH",2022-09-07 09:00:00,5.0,181,0,29.39,47.381141662597656,8.541439056396484
1662023758-922,"Wolfsbergstrasse 26, 8494 Bauma, ZH",2022-09-07 09:00:00,4.5,100,0,18.51,47.364627838134766,8.883868217468262
1662023704-527,"Dorfstrasse 111, 8424 Embrach, ZH",2022-09-07 09:00:00,2.5,71,0,16.89,47.50861740112305,8.593684196472168
1662023745-832,"Calandastrasse 3, 8048 Zürich, ZH",2022-09-07 09:00:00,2.5,65,0,25.23,47.38764953613281,8.489997863769531
1662023701-488,"8006 Zürich, ZH",2022-09-07 09:00:00,3.5,96,0,46.88,47.39287567138672,8.551520347595215
1662023714-596,"8953 Dietikon, ZH",2022-09-07 09:00:00,3.5,85,0,31.65,47.40451431274414,8.402215957641602
1662023739-773,"Langfurrenstrasse 5b, 8623 Wetzikon ZH, ZH",2022-09-07 09:00:00,2.5,60,0,28.67,47.3287239074707,8.810142517089844
1662023689-395,"Billeterstrasse 15, 8044 Zürich, ZH",2022-09-07 09:00:00,1.0,29,0,54.83,47.37915802001953,8.566191673278809
1662023758-921,"Rütibach 11, 8340 Hinwil, ZH",2022-09-07 09:00:00,3.5,100,0,18.9,47.298648834228516,8.839847564697266
1662023733-736,"Stadlerstrasse 35, 8472 Seuzach, ZH",2022-09-07 09:00:00,4.5,100,0,21.2,47.53435134887695,8.740181922912598
1662023810-1340,"Wängistr. 5, 8142 Uitikon Waldegg, ZH",2022-09-07 09:00:00,4.5,143,0,23.31,47.376258850097656,8.447173118591309
1662023695-448,"Chimligasse 5, 8603 Schwerzenbach, ZH",2022-09-07 09:00:00,4.5,105,0,21.14,47.38670349121094,8.658082962036133
1662023774-1051,"Breitenstrasse 12, 8134 Adliswil, ZH",2022-09-07 09:00:00,3.5,70,0,27.86,47.306331634521484,8.5193452835083
1662023801-1262,"Giacomettistrasse 17, 8049 Zürich, ZH",2022-09-07 09:00:00,1.5,130,0,13.85,47.40287399291992,8.505340576171875
1662023714-599,"Burstwiesenstr. 22, 8606 Greifensee, ZH",2022-09-07 09:00:00,4.0,80,0,24.0,47.36946487426758,8.679994583129883
1662023783-1122,"Obere Leihofstrasse 13, 8820 Wädenswil, ZH",2022-09-07 09:00:00,4.5,112,1,29.02,47.22357177734375,8.666900634765625
1662023795-1210,"Im Eich 2, 8625 Gossau ZH, ZH",2022-09-07 09:00:00,3.5,90,0,20.5,47.306175231933594,8.76700496673584
1662023752-871,"Kreuzstrasse 64, 8008 Zürich, ZH",2022-09-07 09:00:00,3.5,125,0,51.12,47.36457824707031,8.552704811096191
1662023689-400,"Baumschuelwäg 1, 8197 Rafz, ZH",2022-09-07 09:00:00,3.5,94,0,19.04,47.60714340209961,8.543349266052246
1662023752-883,"Pfäffikerstrasse 119, 8605 Gutenswil, ZH",2022-09-07 09:00:00,3.5,100,0,19.41,47.38532638549805,8.717787742614746
1662023733-737,"Lindenhofstrasse 4a, 8180 Bülach, ZH",2022-09-07 09:00:00,3.5,107,1,25.47,47.52070236206055,8.538408279418945
1662023720-631,"Möslistrasse 40, 8155 Niederhasli, ZH",2022-09-07 09:00:00,3.5,88,0,19.89,47.48173141479492,8.496448516845703
1662023755-895,"Hintere Grundstrasse 29, 8135 Langnau am Albis, ZH",2022-09-07 09:00:00,3.5,80,0,26.88,47.289249420166016,8.537467002868652
1662023758-933,"Eggbühlstrasse 1, 8050 Zürich, ZH",2022-09-07 09:00:00,4.5,98,0,33.66,47.416175842285156,8.544777870178223
1662023695-445,"Eibenstrasse 6, 8045 Zürich, ZH",2022-09-07 09:00:00,4.0,72,0,31.67,47.363685607910156,8.521366119384766
1662023689-408,"Widenweg 12, 8630 Rüti ZH, ZH",2022-09-07 09:00:00,4.0,70,0,21.29,47.253623962402344,8.85413646697998
1662023798-1229,"Huebbrunnenstrasse 2, 8627 Grüningen, ZH",2022-09-07 09:00:00,4.5,119,0,20.0,,
1662023714-597,"8344 Bäretswil, ZH",2022-09-07 09:00:00,2.5,119,0,18.07,47.322540283203125,8.8612060546875
1662023733-744,"Rebhaldenstrasse 71, 8625 Gossau ZH, ZH",2022-09-07 09:00:00,1.0,21,0,43.33,47.30525588989258,8.767916679382324
1662023789-1154,"Konradstrasse 12, 8400 Winterthur, ZH",2022-09-07 09:00:00,4.5,130,0,20.15,47.5020751953125,8.722041130065918
1662023727-689,"Steinstrasse 14, 8106 Adlikon b. Regensdorf, ZH",2022-09-07 09:00:00,4.5,100,0,17.81,47.452701568603516,8.462518692016602
1662023689-388,"8620 Wetzikon ZH, ZH",2022-09-07 09:00:00,3.5,120,0,20.0,47.31372833251953,8.828516006469727
1662023752-881,"Sandbüelstrasse 44, 8606 Greifensee, ZH",2022-09-07 09:00:00,3.0,71,0,25.49,47.37326431274414,8.676733016967773
1662023701-498,"Balsbergweg 14, 8302 Kloten, ZH",2022-09-07 09:00:00,2.5,59,0,27.29,47.44394302368164,8.576591491699219
1662023755-905,"Butzenstrasse 2, 8038 Zürich, ZH",2022-09-07 09:00:00,1.5,30,0,49.33,47.34154510498047,8.530033111572266
1662023795-1223,"Eggbühlstrasse 24, 8050 Zürich, ZH",2022-09-07 09:00:00,4.5,111,0,33.92,47.41639709472656,8.543224334716797
1662023745-838,"8154 Oberglatt ZH, ZH",2022-09-07 09:00:00,1.0,20,0,89.5,47.48018264770508,8.524710655212402
1662023745-822,"Centralweg 8, 8910 Affoltern am Albis, ZH",2022-09-07 09:00:00,2.5,65,0,24.0,47.278282165527344,8.452200889587402
1662023701-482,"Limmatquai 70, 8001 Zürich, ZH",2022-09-07 09:00:00,1.0,20,0,107.5,47.372718811035156,8.542970657348633
1662023801-1256,"Stationsstrasse 62, 8424 Embrach, ZH",2022-09-07 09:00:00,3.5,80,0,20.69,47.51503372192383,8.590367317199707
1662023807-1305,"Weststrasse 66, 8620 Wetzikon ZH, ZH",2022-09-07 09:00:00,2.5,60,0,25.67,47.329673767089844,8.796716690063477
1662023777-1062,"Ifangstrasse 48, 8604 Volketswil, ZH",2022-09-07 09:00:00,3.0,70,0,21.29,47.39152526855469,8.676628112792969
1662023798-1225,"Bodenstrasse 21, 8805 Richterswil, ZH",2022-09-07 09:00:00,3.5,73,0,24.47,47.207828521728516,8.695242881774902
1662023767-997,"Wülflingerstrasse 151a, 8408 Winterthur, ZH",2022-09-07 09:00:00,4.5,114,0,23.25,47.50883865356445,8.704948425292969
1662023733-740,"Affolternstrasse 103, 8050 Zürich, ZH",2022-09-07 09:00:00,1.0,22,0,59.09,47.41026306152344,8.536553382873535
1662023807-1313,"Winterthurerstr. 11, 8180 Bülach, ZH",2022-09-07 09:00:00,4.5,148,0,19.88,47.5196418762207,8.54224681854248
1662023793-1182,"Zürcherstrasse 5, 8102 Oberengstringen, ZH",2022-09-07 09:00:00,2.5,57,0,24.04,47.405029296875,8.47723388671875
1662023780-1082,"Wermatswilerstrasse 91, 8610 Uster, ZH",2022-09-07 09:00:00,4.5,98,0,21.43,47.35652542114258,8.729662895202637
1662023723-652,"Sunnebüelstr. 41, 8604 Volketswil, ZH",2022-09-07 09:00:00,5.0,99,0,18.59,47.39354705810547,8.681330680847168
1662023774-1037,"Alte Kanzleistrasse 11, 8910 Affoltern am Albis, ZH",2022-09-07 09:00:00,3.5,103,1,27.43,47.27546691894531,8.447565078735352
1662023774-1050,"Drusbergstrasse 21, 8810 Horgen, ZH",2022-09-07 09:00:00,3.5,76,0,25.0,47.253753662109375,8.59769344329834
1662023780-1084,"Nelkenstr. 2, 8330 Pfäffikon ZH, ZH",2022-09-07 09:00:00,3.5,76,0,22.37,47.37173843383789,8.784454345703125
1662023736-757,"Am Brunnenbächli 28, 8125 Zollikerberg, ZH",2022-09-07 09:00:00,4.5,97,0,23.3,47.34169006347656,8.607666969299316
1662023727-677,"Brühlstrasse 4, 8311 Brütten, ZH",2022-09-07 09:00:00,3.5,89,0,25.28,47.47344970703125,8.67549991607666
1662023783-1124,"Vorbruggenstr. 20, 8422 Pfungen, ZH",2022-09-07 09:00:00,2.5,65,0,24.46,47.5192756652832,8.639522552490234
1662023717-614,"Im Halbiacker 3, 8352 Elsau, ZH",2022-09-07 09:00:00,2.5,75,0,23.87,47.50206756591797,8.783915519714355
1662023689-399,"Nordstrasse 15, 8180 Bülach, ZH",2022-09-07 09:00:00,1.5,26,0,53.85,47.52280807495117,8.536508560180664
1662023692-430,"Bohnäckerstr. 11, 8955 Oetwil an der Limmat, ZH",2022-09-07 09:00:00,3.5,87,0,21.78,47.427955627441406,8.391122817993164
1662023701-501,"Ohrütistrasse 167, 8497 Fischenthal, ZH",2022-09-07 09:00:00,4.5,135,0,16.29,,
1662023717-606,"Im Zelgli 12, 8624 Grüt (Gossau ZH), ZH",2022-09-07 09:00:00,4.5,87,0,18.62,47.30967712402344,8.781928062438965
1662023767-994,"Forchstr. 26, 8008 Zürich, ZH",2022-09-07 09:00:00,3.5,85,0,40.18,47.363990783691406,8.556114196777344
1662023810-1337,"Säntisweg 5, 8604 Volketswil, ZH",2022-09-07 09:00:00,2.0,53,0,20.02,47.395355224609375,8.680856704711914
1662023739-789,"Langgrütstrasse 96, 8047 Zürich, ZH",2022-09-07 09:00:00,3.5,71,0,44.93,47.37327575683594,8.495824813842773
1662023774-1053,"Scheffelstrasse 11, 8037 Zürich, ZH",2022-09-07 09:00:00,3.5,76,0,59.87,47.39439010620117,8.529122352600098
1662023695-456,"8005 Zürich, ZH",2022-09-07 09:00:00,2.5,96,0,38.42,47.38420486450195,8.531729698181152
1662023695-441,"Grafschaftstrasse 23, 8172 Niederglatt ZH, ZH",2022-09-07 09:00:00,3.5,59,0,28.47,47.49378967285156,8.503396987915039
1662023789-1167,"Magdalenenstrasse 9, 8050 Zürich, ZH",2022-09-07 09:00:00,2.5,103,0,30.29,47.40725326538086,8.551426887512207
1662023704-513,"Breitackerstrasse 31, 8542 Wiesendangen, ZH",2022-09-07 09:00:00,4.5,110,0,20.09,47.5235595703125,8.784727096557617
1662023767-988,"Kreuzstrasse 55, 8008 Zürich, ZH",2022-09-07 09:00:00,2.5,71,0,43.52,47.364540100097656,8.552120208740234
1662023742-803,"Emil Oprecht-Str. 1, 8050 Zürich, ZH",2022-09-07 09:00:00,4.5,99,0,29.29,47.41197967529297,8.541033744812012
1662023727-674,"Nüsatzstrasse 27, 8248 Uhwiesen, ZH",2022-09-07 09:00:00,3.5,76,0,22.74,47.66944122314453,8.640958786010742
1662023789-1169,"Tödihof 1, 8712 Stäfa, ZH",2022-09-07 09:00:00,5.5,105,0,26.19,47.24312210083008,8.724576950073242
1662023783-1117,"Glärnischstrasse 62, 8618 Oetwil am See, ZH",2022-09-07 09:00:00,4.5,98,0,19.23,47.27785873413086,8.720203399658203
1662023742-797,"8193 Eglisau, ZH",2022-09-07 09:00:00,1.0,28,0,49.64,47.57356262207031,8.520898818969727
1662023767-1002,"Breitigasse 5, 8610 Uster, ZH",2022-09-07 09:00:00,3.5,73,0,24.66,47.34422302246094,8.734959602355957
1662023730-717,"Birkenweg 8, 8700 Küsnacht ZH, ZH",2022-09-07 09:00:00,3.5,170,0,32.65,47.322723388671875,8.586901664733887
1662023704-517,"Schaffhauserstrasse 475, 8052 Zürich, ZH",2022-09-07 09:00:00,2.0,54,0,35.26,47.42020034790039,8.54835319519043
1662023771-1017,"Müllerwis 30, 8606 Greifensee, ZH",2022-09-07 09:00:00,4.0,81,0,24.04,47.369266510009766,8.681855201721191
1662023717-620,"Else-Züblin-Strasse 112, 8404 Winterthur, ZH",2022-09-07 09:00:00,3.5,144,0,16.74,47.50380325317383,8.763983726501465
1662023795-1204,"Else-Züblin-Str. 74, 8404 Winterthur, ZH",2022-09-07 09:00:00,3.5,99,0,21.62,47.50324630737305,8.765312194824219
1662023736-759,"Werkstrasse 3, 8627 Grüningen, ZH",2022-09-07 09:00:00,5.5,114,0,15.68,,
1662023793-1179,"Bachtelstrasse 57, 8330 Pfäffikon ZH, ZH",2022-09-07 09:00:00,3.5,108,0,24.57,47.36494064331055,8.791268348693848
1662023789-1162,"Seefeldstr. 117, 8008 Zürich, ZH",2022-09-07 09:00:00,4.0,97,0,37.78,47.35837936401367,8.554369926452637
1662023695-442,"Schärackerstrasse 9, 8330 Pfäffikon ZH, ZH",2022-09-07 09:00:00,3.5,91,0,21.87,47.371185302734375,8.779633522033691
1662023774-1035,"Kreuzstrasse 7, 8400 Winterthur, ZH",2022-09-07 09:00:00,4.0,112,0,29.91,47.50360870361328,8.72900104522705
1662023798-1234,"Neuwiesenstrasse 31, 8400 Winterthur, ZH",2022-09-07 09:00:00,3.5,94,0,29.79,47.5003662109375,8.719480514526367
1662023692-411,"8820 Wädenswil, ZH",2022-09-07 09:00:00,1.5,40,0,34.38,47.22698211669922,8.662249565124512
1662023698-463,"8330 Pfäffikon ZH, ZH",2022-09-07 09:00:00,2.5,54,0,31.85,47.364013671875,8.782011032104492
1662023771-1011,"Spichergasse 10b, 8185 Winkel, ZH",2022-09-07 09:00:00,3.5,65,0,27.23,47.491275787353516,8.555011749267578
1662023695-446,"Kleindorfstrasse 58, 8707 Uetikon am See, ZH",2022-09-07 09:00:00,2.5,73,0,27.4,47.26448059082031,8.683062553405762
1662023727-690,"Waidlistrasse 82, 8810 Horgen, ZH",2022-09-07 09:00:00,3.5,86,0,27.91,47.25424575805664,8.613272666931152
1662023777-1072,"Obere Leihofstrasse 13, 8820 Wädenswil, ZH",2022-09-07 09:00:00,3.5,75,1,29.2,47.22357177734375,8.666900634765625
1662023686-381,"Zwickystrasse 18, 8304 Wallisellen, ZH",2022-09-07 09:00:00,2.5,122,0,20.84,,
1662023810-1343,"Am Giessenpark 11, 8600 Dübendorf, ZH",2022-09-07 09:00:00,3.5,102,0,25.29,47.40099334716797,8.612852096557617
1662023704-511,"Weidstr. 1, 8135 Langnau am Albis, ZH",2022-09-07 09:00:00,3.5,76,0,20.92,47.29462814331055,8.536721229553223
1662023767-987,"Sonnenbergstrasse 4, 8910 Affoltern am Albis, ZH",2022-09-07 09:00:00,3.0,65,0,22.15,47.28150177001953,8.457354545593262
1662023689-407,"Werkstrasse 47, 8630 Rüti ZH, ZH",2022-09-07 09:00:00,3.5,80,0,25.38,47.252437591552734,8.853998184204102
1662023720-632,"Am Gulmenbach 10, 8820 Wädenswil, ZH",2022-09-07 09:00:00,4.5,114,0,24.56,47.23025894165039,8.656451225280762
1662023749-850,"Einsiedlerstrasse 226, 8810 Horgen, ZH",2022-09-07 09:00:00,3.5,93,0,24.51,47.25436782836914,8.598150253295898
1662023723-661,"8820 Wädenswil, ZH",2022-09-07 09:00:00,2.5,60,0,32.5,47.22698211669922,8.662249565124512
1662023755-893,"Röntgenstrasse 48, 8005 Zürich, ZH",2022-09-07 09:00:00,2.5,67,0,49.25,47.38470458984375,8.527143478393555
1662023789-1170,"Dennlerstr. 24, 8047 Zürich, ZH",2022-09-07 09:00:00,2.0,46,0,31.52,47.381561279296875,8.497806549072266
1662023733-724,"Büelstrasse 30, 8103 Unterengstringen, ZH",2022-09-07 09:00:00,4.5,190,0,23.68,47.41432571411133,8.445075988769531
1662023807-1314,"Webereistrasse 8, 8953 Dietikon, ZH",2022-09-07 09:00:00,3.5,80,0,24.68,47.409847259521484,8.404328346252441
1662023755-908,"Zürichstrasse 63, 8607 Aathal-Seegräben, ZH",2022-09-07 09:00:00,2.0,54,0,16.57,47.33839797973633,8.762406349182129
1662023798-1226,"Rebackerstrasse 31, 8955 Oetwil an der Limmat, ZH",2022-09-07 09:00:00,4.5,192,0,17.71,47.426002502441406,8.397468566894531
1662023704-515,"Jungholzstrasse 20, 8050 Zürich, ZH",2022-09-07 09:00:00,1.5,43,0,40.47,47.41342544555664,8.54434871673584
1662023767-992,"Zwillikerstrasse 4, 8908 Hedingen, ZH",2022-09-07 09:00:00,4.0,85,0,23.71,47.29840850830078,8.447592735290527
1662023789-1153,"Obere Leihofstrasse 11, 8820 Wädenswil, ZH",2022-09-07 09:00:00,3.5,75,1,30.55,47.22368240356445,8.66706371307373
1662023767-990,"Nelkenstr. 9, 8330 Pfäffikon ZH, ZH",2022-09-07 09:00:00,3.5,79,0,20.76,47.37203598022461,8.784619331359863
1662023752-866,"Wilhofstrasse 2, 8332 Russikon, ZH",2022-09-07 09:00:00,2.5,61,0,30.82,47.39215087890625,8.774938583374023
1662023698-466,"Waffenplatzstrasse 80, 8002 Zürich, ZH",2022-09-07 09:00:00,4.0,87,0,31.8,47.355648040771484,8.52674674987793
1662023723-655,"Bächliwis 7, 8184 Bachenbülach, ZH",2022-09-07 09:00:00,3.0,62,0,24.27,47.50484848022461,8.544466972351074
1662023783-1119,"Am Giessenpark 1, 8600 Dübendorf, ZH",2022-09-07 09:00:00,5.5,123,0,25.28,47.401241302490234,8.611506462097168
1662023720-643,"Badenerstrasse 595, 8048 Zürich, ZH",2022-09-07 09:00:00,1.0,83,1,33.73,47.3852653503418,8.49389934539795
1662023795-1215,"Lägernstrasse 20, 8953 Dietikon, ZH",2022-09-07 09:00:00,3.0,60,0,24.83,47.405677795410156,8.394124031066895
1662023807-1300,"Wildbachstrasse 17, 8424 Embrach, ZH",2022-09-07 09:00:00,4.5,98,0,19.8,47.51191329956055,8.58958911895752
1662023758-925,"Stöcklerstr. 6, 8610 Uster, ZH",2022-09-07 09:00:00,3.0,69,0,23.99,47.343082427978516,8.734877586364746
1662023695-443,"Bahnhofstrasse 8, 8154 Oberglatt ZH, ZH",2022-09-07 09:00:00,4.5,105,0,21.43,47.476478576660156,8.518460273742676
1662023764-983,"Am Wasser 161, 8049 Zürich, ZH",2022-09-07 09:00:00,2.5,42,0,71.43,47.399436950683594,8.495816230773926
1662023774-1039,"Dorfstrasse 100, 8954 Geroldswil, ZH",2022-09-07 09:00:00,4.5,86,0,19.53,47.424278259277344,8.409123420715332
1662023786-1133,"Krummibuckweg 9, 8157 Dielsdorf, ZH",2022-09-07 09:00:00,3.5,75,0,25.47,47.48097229003906,8.460487365722656
1662023736-765,"Burstwiesenstr. 22, 8606 Greifensee, ZH",2022-09-07 09:00:00,4.0,80,0,24.31,47.36946487426758,8.679994583129883
1662023774-1036,"Kreuzstrasse 7, 8400 Winterthur, ZH",2022-09-07 09:00:00,4.0,112,0,29.91,47.50360870361328,8.72900104522705
1662023780-1090,"Im Grund 11, 12, 8442 Hettlingen, ZH",2022-09-07 09:00:00,4.5,128,0,17.27,,
1662023711-571,"Schönenbergstrasse 30, 8820 Wädenswil, ZH",2022-09-07 09:00:00,3.5,79,0,31.77,47.22728729248047,8.669577598571777
1662023745-821,"Ackerstrasse 55, 8005 Zürich, ZH",2022-09-07 09:00:00,1.5,25,0,66.0,47.383338928222656,8.532877922058105
1662023686-372,"Zürichstrasse 82, 8118 Pfaffhausen, ZH",2022-09-07 09:00:00,2.5,57,0,33.16,47.36402893066406,8.619695663452148
1662023807-1316,"Leutschenbachstrasse 50/50a, 8050 Zürich, ZH",2022-09-07 09:00:00,3.5,86,1,31.4,,
1662023783-1127,"Sulzer-Allee 79, 8404 Winterthur, ZH",2022-09-07 09:00:00,2.5,81,0,23.95,,
1662023783-1111,"Dörnliackerstrasse 3, 8952 Schlieren, ZH",2022-09-07 09:00:00,2.5,53,0,24.91,47.395267486572266,8.439332962036133
1662023813-1349,"Wülflingerstrasse 2, 8400 Winterthur, ZH",2022-09-07 09:00:00,2.0,54,0,35.37,47.50292205810547,8.724250793457031
1662023793-1177,"Gussstrasse 16, 8180 Bülach, ZH",2022-09-07 09:00:00,3.5,87,0,22.87,47.52637481689453,8.537738800048828
1662023798-1230,"Birchwiesstrasse 4, 8114 Dänikon ZH, ZH",2022-09-07 09:00:00,4.5,120,0,16.77,47.44737243652344,8.408712387084961
1662023795-1207,"Imbisbühlstrasse 108, 8049 Zürich, ZH",2022-09-07 09:00:00,3.5,131,0,25.63,47.40587615966797,8.487546920776367
1662023764-963,"Breitestr. 3, 8903 Birmensdorf ZH, ZH",2022-09-07 09:00:00,3.5,90,0,23.33,47.352378845214844,8.436046600341797
1662023767-1005,"Bahnhofstrasse 117, 8620 Wetzikon ZH, ZH",2022-09-07 09:00:00,2.5,73,0,25.48,47.32510757446289,8.798135757446289
1662023752-868,"Poststrasse 1, 8406 Winterthur, ZH",2022-09-07 09:00:00,1.5,33,0,38.15,47.490657806396484,8.705796241760254
1662023692-409,"8055 Zürich, ZH",2022-09-07 09:00:00,2.5,68,0,45.96,47.36378860473633,8.509098052978516
1662023777-1068,"Langackerweg 13, 8155 Niederhasli, ZH",2022-09-07 09:00:00,2.0,49,0,30.82,47.483028411865234,8.48688793182373
1662023777-1078,"Zeughausstr. 27a, 8910 Affoltern am Albis, ZH",2022-09-07 09:00:00,3.5,78,0,23.46,47.27204132080078,8.450376510620117
1662023733-727,"Überlandstrasse 206, 8600 Dübendorf, ZH",2022-09-07 09:00:00,4.5,114,0,23.41,47.400718688964844,8.623079299926758
1662023745-836,"Neudorfstr. 17, 8050 Zürich, ZH",2022-09-07 09:00:00,3.5,110,0,25.91,47.41176223754883,8.547621726989746
1662023789-1173,"Gerhardstrasse 8, 8003 Zürich, ZH",2022-09-07 09:00:00,4.0,82,0,42.56,47.37050247192383,8.523018836975098
1662023771-1027,"Müllerwis 25, 8606 Greifensee, ZH",2022-09-07 09:00:00,2.0,55,0,25.85,47.370811462402344,8.682324409484863
1662023714-592,"Holzmoosrütistrasse 44a, 8820 Wädenswil, ZH",2022-09-07 09:00:00,4.5,90,1,24.67,47.23556900024414,8.650527000427246
1662023783-1120,"Unterwegli 35, 8404 Winterthur, ZH",2022-09-07 09:00:00,3.5,88,0,20.23,47.504886627197266,8.752949714660645
1662023793-1191,"Else-Züblin-Strasse 73, 8404 Winterthur, ZH",2022-09-07 09:00:00,3.5,94,0,22.98,47.50276184082031,8.763882637023926
1662023810-1342,"Zipartenstr. 45, 8600 Dübendorf, ZH",2022-09-07 09:00:00,3.5,79,0,24.56,47.39463806152344,8.60456657409668
1662023804-1286,"Am Wildbach 7, 8320 Fehraltorf, ZH",2022-09-07 09:00:00,5.5,190,0,18.16,47.38938522338867,8.744006156921387
1662023739-770,"Badenerstrasse 110, 8952 Schlieren, ZH",2022-09-07 09:00:00,4.5,109,0,24.59,47.397884368896484,8.431954383850098
1662023733-730,"Holzmoosrütistrasse 44a, 8820 Wädenswil, ZH",2022-09-07 09:00:00,3.5,75,1,26.6,47.23556900024414,8.650527000427246
1662023707-539,"Hulfteggstr. 19, 8400 Winterthur, ZH",2022-09-07 09:00:00,5.0,95,0,16.53,47.49119567871094,8.75192928314209
1662023707-537,"Aronenweg 17, 8618 Oetwil am See, ZH",2022-09-07 09:00:00,4.5,102,0,19.61,47.275535583496094,8.718412399291992
1662023801-1249,"Ankerstr. 114 / Müllerstr. 71, 8004 Zürich, ZH",2022-09-07 09:00:00,3.5,96,0,57.29,,
1662023804-1277,"Holzlegistr. 6, 8408 Winterthur, ZH",2022-09-07 09:00:00,3.0,62,0,24.27,47.5120735168457,8.695403099060059
1662023720-626,"Haagächerstrasse 12, 8155 Niederhasli, ZH",2022-09-07 09:00:00,4.5,120,0,16.58,47.47222137451172,8.486286163330078
1662023783-1108,"Karstlernstrasse 14, 8048 Zürich, ZH",2022-09-07 09:00:00,1.0,30,0,47.67,47.3899040222168,8.47831916809082
1662023717-611,"Sternen 1, 8833 Samstagern, ZH",2022-09-07 09:00:00,4.5,150,0,20.33,47.19702911376953,8.690900802612305
1662023767-995,"Kreuzstrasse 55, 8008 Zürich, ZH",2022-09-07 09:00:00,1.5,41,0,50.98,47.364540100097656,8.552120208740234
1662023789-1175,"Hörnlistrasse 6 A/6 B, 8400 Winterthur, ZH",2022-09-07 09:00:00,1.0,35,0,31.29,,
1662023801-1254,"Tannenbergstrasse 58, 8625 Gossau ZH, ZH",2022-09-07 09:00:00,4.5,100,0,21.0,47.30460739135742,8.769102096557617
1662023789-1168,"Altburgstr. 19, 8105 Regensdorf, ZH",2022-09-07 09:00:00,2.0,56,0,29.82,47.42815399169922,8.47533893585205
1662023749-849,"Sandstrasse 1, 8180 Bülach, ZH",2022-09-07 09:00:00,4.5,117,0,27.78,47.52568817138672,8.541040420532227
1662023698-458,"Scheffelstrasse 11, 8037 Zürich, ZH",2022-09-07 09:00:00,2.5,56,0,78.39,47.39439010620117,8.529122352600098
1662023742-804,"Emil Oprecht-Str. 1, 8050 Zürich, ZH",2022-09-07 09:00:00,4.5,99,0,26.87,47.41197967529297,8.541033744812012
1662023701-493,"Herrligweg 9, 8048 Zürich, ZH",2022-09-07 09:00:00,2.5,60,0,41.67,47.389892578125,8.484477996826172
1662023701-485,"Schneggenstr. 24, 8620 Wetzikon ZH, ZH",2022-09-07 09:00:00,3.5,72,0,21.72,47.320735931396484,8.8002290725708
1662023745-825,"Langacherstrasse 16, 8103 Unterengstringen, ZH",2022-09-07 09:00:00,3.5,103,0,23.16,47.41263961791992,8.453574180603027
1662023717-618,"Zeltweg 23, 8610 Uster, ZH",2022-09-07 09:00:00,3.0,62,0,27.26,47.34798812866211,8.709195137023926
1662023723-660,"Brunaustrasse 160, 8951 Fahrweid, ZH",2022-09-07 09:00:00,3.5,84,1,29.64,47.412540435791016,8.417913436889648
1662023767-1006,"8180 Bülach, ZH",2022-09-07 09:00:00,4.5,115,1,28.26,47.5200309753418,8.5663423538208
1662023717-608,"Tunnelstr. 5, 8330 Pfäffikon ZH, ZH",2022-09-07 09:00:00,5.5,155,0,21.29,47.36875915527344,8.780900001525879
1662023783-1123,"Else-Züblin-Strasse 77, 8404 Winterthur, ZH",2022-09-07 09:00:00,3.5,94,0,22.18,47.50312042236328,8.763753890991211
1662023771-1016,"Schulstrasse 12, 8330 Pfäffikon ZH, ZH",2022-09-07 09:00:00,3.5,101,0,22.82,47.36713790893555,8.780004501342773
1662023813-1361,"Dättlikonerstrasse 16, 8422 Pfungen, ZH",2022-09-07 09:00:00,4.5,130,1,22.69,47.51939010620117,8.6381196975708
1662023755-892,"8494 Bauma, ZH",2022-09-07 09:00:00,3.0,60,0,23.67,47.362789154052734,8.92087173461914
1662023720-628,"Allmendstrasse 29, 8180 Bülach, ZH",2022-09-07 09:00:00,2.5,65,0,28.92,47.514713287353516,8.533659934997559
1662023789-1176,"Magazingasse 2, 8400 Winterthur, ZH",2022-09-07 09:00:00,4.5,109,0,26.47,47.50620651245117,8.71890640258789
1662023707-543,"Bahnhofstrasse 83, 8245 Feuerthalen, ZH",2022-09-07 09:00:00,4.5,86,0,19.65,47.687747955322266,8.649845123291016
1662023692-423,"8330 Pfäffikon ZH, ZH",2022-09-07 09:00:00,4.5,120,0,20.83,47.364013671875,8.782011032104492
1662023707-545,"Schulstrasse 12, 8462 Rheinau, ZH",2022-09-07 09:00:00,1.5,25,0,39.6,47.6439208984375,8.602176666259766
1662023749-842,"Chüeweid 7, 8906 Bonstetten, ZH",2022-09-07 09:00:00,3.5,85,0,24.47,47.31626892089844,8.466718673706055
1662023720-635,"Sagirain 2, 8605 Gutenswil, ZH",2022-09-07 09:00:00,2.0,72,0,19.03,47.385475158691406,8.715425491333008
1662023745-837,"Elisabethenstrasse 28, 8004 Zürich, ZH",2022-09-07 09:00:00,3.5,70,0,61.43,47.37369155883789,8.521880149841309
1662023717-617,"Lindenstrasse 25, 8307 Effretikon, ZH",2022-09-07 09:00:00,2.5,69,0,21.88,47.42894744873047,8.697382926940918
1662023764-965,"Schaffhauserstrasse 29, 8400 Winterthur, ZH",2022-09-07 09:00:00,4.0,82,0,23.78,47.50638198852539,8.723402976989746
1662023755-894,"Feldstrasse 26, 8105 Regensdorf, ZH",2022-09-07 09:00:00,2.5,84,0,24.88,47.438716888427734,8.473904609680176
1662023752-870,"Spindelstrasse 12, 8041 Zürich, ZH",2022-09-07 09:00:00,3.5,95,0,49.37,47.339759826660156,8.517643928527832
1662023707-549,"Piazza Santeramo 1, 8180 Bülach, ZH",2022-09-07 09:00:00,3.5,97,0,28.87,47.52568817138672,8.541040420532227
1662023730-709,"Lehfrauenweg 10, 8053 Zürich, ZH",2022-09-07 09:00:00,2.5,51,0,43.14,47.359649658203125,8.589973449707031
1662023793-1197,"Obere Leihofstrasse 11, 8820 Wädenswil, ZH",2022-09-07 09:00:00,4.5,105,1,26.38,47.22368240356445,8.66706371307373
1662023714-577,"Bachtobelstrasse 23, 8045 Zürich, ZH",2022-09-07 09:00:00,2.0,51,0,34.31,47.36090850830078,8.516180038452148
1662023789-1158,"Obere Leihofstrasse 9, 8820 Wädenswil, ZH",2022-09-07 09:00:00,3.5,82,0,26.4,47.22379684448242,8.667224884033203
1662023698-462,"Schlosshofstrasse 21, 8400 Winterthur, ZH",2022-09-07 09:00:00,2.5,68,0,29.71,47.49552917480469,8.711296081542969
1662023786-1148,"Uhlandstrasse 6, 8037 Zürich, ZH",2022-09-07 09:00:00,2.5,76,0,60.53,47.394466400146484,8.5289306640625
1662023730-718,"Parkweg 8, 8134 Adliswil, ZH",2022-09-07 09:00:00,2.5,45,0,34.78,47.322261810302734,8.53016471862793
1662023771-1028,"Bahnhofplatz 5a, 8910 Affoltern am Albis, ZH",2022-09-07 09:00:00,3.5,79,1,27.97,47.275054931640625,8.446146965026855
1662023689-397,"Spichergasse 3, 8185 Winkel, ZH",2022-09-07 09:00:00,4.5,97,0,23.81,47.49066925048828,8.55453872680664
1662023807-1304,"Breitestrasse 56, 8400 Winterthur, ZH",2022-09-07 09:00:00,4.0,90,0,23.67,47.490455627441406,8.727546691894531
1662023793-1189,"Herrligstrasse 36, 8048 Zürich, ZH",2022-09-07 09:00:00,2.5,56,0,31.25,47.38893127441406,8.48462200164795
1662023742-814,"Huebstrasse 21, 8317 Tagelswangen, ZH",2022-09-07 09:00:00,2.5,70,0,30.43,47.43145751953125,8.675027847290039
1662023717-604,"Steiggasse 4, 8418 Schlatt ZH, ZH",2022-09-07 09:00:00,3.5,100,0,17.0,47.478694915771484,8.820316314697266
1662023786-1142,"Hubenstr. 14, 8057 Zürich, ZH",2022-09-07 09:00:00,4.5,91,0,25.93,47.4035758972168,8.558526039123535
1662023810-1339,"Unterdorfstrasse 3, 8933 Maschwanden, ZH",2022-09-07 09:00:00,4.0,96,0,17.29,47.23373794555664,8.423295021057129
1662023771-1019,"Langackerweg 13, 8155 Niederhasli, ZH",2022-09-07 09:00:00,1.0,32,0,33.28,47.483028411865234,8.48688793182373
1662023807-1303,"Hauptstrasse 4, 8543 Gundetswil, ZH",2022-09-07 09:00:00,2.5,67,0,23.88,47.53946304321289,8.821414947509766
1662023795-1208,"Lochäckerstrasse 12, 8302 Kloten, ZH",2022-09-07 09:00:00,3.5,84,0,27.74,47.444705963134766,8.590353012084961
1662023774-1041,"Alte Winterthurerstrasse 95, 8304 Wallisellen, ZH",2022-09-07 09:00:00,3.5,109,0,26.79,47.420196533203125,8.59860897064209
1662023704-505,"Stadlerstrasse 4, 8187 Weiach, ZH",2022-09-07 09:00:00,4.0,140,0,12.86,47.55731201171875,8.435951232910156
1662023795-1209,"Gustav-Gull-Platz 11, 8004 Zürich, ZH",2022-09-07 09:00:00,3.5,99,0,52.02,47.379425048828125,8.5318021774292
1662023698-460,"Mühlestr. 4B, 8912 Obfelden, ZH",2022-09-07 09:00:00,4.5,117,0,18.63,47.26331329345703,8.411442756652832
1662023813-1363,"Nelkenstrasse 20, 8006 Zürich, ZH",2022-09-07 09:00:00,3.5,69,0,54.35,47.38184356689453,8.546545028686523
1662023780-1104,"Gustav-Gull-Platz 11, 8004 Zürich, ZH",2022-09-07 09:00:00,4.5,120,0,43.42,47.379425048828125,8.5318021774292
1662023707-534,"Tellstrasse 16a, 8400 Winterthur, ZH",2022-09-07 09:00:00,3.5,63,0,28.41,47.50239181518555,8.720512390136719
1662023701-487,"Neugut 4, 8180 Bülach, ZH",2022-09-07 09:00:00,4.5,87,0,20.78,47.524139404296875,8.540482521057129
1662023777-1073,"Seestrasse 147, 8820 Wädenswil, ZH",2022-09-07 09:00:00,3.5,93,0,26.34,47.23194885253906,8.67097282409668
1662023774-1046,"Rebhaldenstrasse 71, 8625 Gossau ZH, ZH",2022-09-07 09:00:00,1.0,30,0,37.67,47.30525588989258,8.767916679382324
1662023704-510,"Seemerrütiweg 4, 8483 Kollbrunn, ZH",2022-09-07 09:00:00,3.5,93,0,23.66,47.457191467285156,8.770578384399414
1662023723-657,"Dörflistrasse 112, 8050 Zürich, ZH",2022-09-07 09:00:00,2.5,50,0,56.8,47.410823822021484,8.547832489013672
1662023798-1243,"Alte Landstrasse 359, 8708 Männedorf, ZH",2022-09-07 09:00:00,3.5,89,0,22.47,47.24911117553711,8.703768730163574
1662023736-753,"Schwandenholzstrasse 260, 8046 Zürich, ZH",2022-09-07 09:00:00,4.5,90,0,26.89,47.42427444458008,8.519989967346191
1662023780-1095,"In der Fadmatt 59, 8902 Urdorf, ZH",2022-09-07 09:00:00,4.5,82,0,22.68,47.383304595947266,8.428935050964355
1662023739-788,"Letzigraben 165, 8047 Zürich, ZH",2022-09-07 09:00:00,3.5,67,0,39.85,47.374027252197266,8.495600700378418
1662023689-406,"Thurgauerstrasse 2, 8400 Winterthur, ZH",2022-09-07 09:00:00,4.0,75,0,26.0,47.49839782714844,8.742392539978027
1662023795-1201,"Oberlandstr. 75, 8610 Uster, ZH",2022-09-07 09:00:00,3.5,92,0,22.07,47.35482406616211,8.715861320495605
1662023795-1218,"Maneggplatz 40, 8041 Zürich, ZH",2022-09-07 09:00:00,2.5,71,0,30.14,47.33966827392578,8.520100593566895
1662023745-834,"8608 Bubikon, ZH",2022-09-07 09:00:00,3.5,92,0,25.54,47.27738571166992,8.80030632019043
1662023720-642,"Lindenhofstrasse 10A, 8624 Grüt (Gossau ZH), ZH",2022-09-07 09:00:00,4.5,135,0,21.11,47.31279373168945,8.784515380859375
1662023745-833,"Jonas-Furrer-Str. 21, 8046 Zürich, ZH",2022-09-07 09:00:00,2.5,68,0,25.91,47.42037582397461,8.508238792419434
1662023793-1199,"Obere Leihofstrasse 13, 8820 Wädenswil, ZH",2022-09-07 09:00:00,4.5,105,1,26.84,47.22357177734375,8.666900634765625
1662023793-1188,"Bahnhofstrasse 25, 8712 Stäfa, ZH",2022-09-07 09:00:00,4.0,88,0,28.98,47.24042510986328,8.72176456451416
1662023714-591,"Schulhausstrasse 47, 8002 Zürich, ZH",2022-09-07 09:00:00,1.0,35,0,50.0,47.36001968383789,8.528043746948242
1662023730-714,"8820 Wädenswil, ZH",2022-09-07 09:00:00,3.0,57,0,38.6,47.22698211669922,8.662249565124512
1662023749-845,"Parkweg 8, 8112 Otelfingen, ZH",2022-09-07 09:00:00,5.5,141,0,20.57,47.455780029296875,8.38657283782959
1662023730-713,"Seehaldenweg 12, 8706 Meilen, ZH",2022-09-07 09:00:00,3.5,80,0,24.88,47.27052688598633,8.637492179870605
1662023695-435,"Lochäckerstrasse 4, 8302 Kloten, ZH",2022-09-07 09:00:00,3.0,56,0,33.75,47.445255279541016,8.589338302612305
1662023714-578,"Limmatwiesenstr. 22, 8955 Oetwil an der Limmat, ZH",2022-09-07 09:00:00,3.5,85,0,21.41,47.42788314819336,8.393007278442383
1662023749-848,"Kaffeestrasse 15, 8180 Bülach, ZH",2022-09-07 09:00:00,4.5,96,1,25.21,47.51191329956055,8.5375394821167
1662023793-1187,"Hagenholzstrasse 66, 8050 Zürich, ZH",2022-09-07 09:00:00,1.0,111,1,20.99,47.4133186340332,8.556182861328125
1662023774-1049,"Trübelstrasse 51, 8712 Stäfa, ZH",2022-09-07 09:00:00,5.5,150,0,31.0,47.2474479675293,8.723974227905273
1662023704-525,"Poststrasse 4, 8462 Rheinau, ZH",2022-09-07 09:00:00,4.0,80,0,18.75,47.64501190185547,8.60564136505127
1662023767-999,"Holderbachweg 8, 8046 Zürich, ZH",2022-09-07 09:00:00,3.5,90,0,25.44,47.41841506958008,8.504903793334961
1662023739-777,"Weiermattstrasse 3, 8926 Uerzlikon, ZH",2022-09-07 09:00:00,9.0,300,0,13.33,47.22249984741211,8.497673034667969
1662023736-758,"Nägelseestrasse 26, 8406 Winterthur, ZH",2022-09-07 09:00:00,2.0,45,0,30.89,47.49116516113281,8.702677726745605
1662023764-977,"Türlimattstr. 1, 8404 Winterthur, ZH",2022-09-07 09:00:00,3.5,71,0,22.77,47.50771713256836,8.74938678741455
1662023793-1193,"Zeughausstr. 29b, 8910 Affoltern am Albis, ZH",2022-09-07 09:00:00,3.5,78,0,23.53,47.27188491821289,8.45091724395752
1662023761-956,"Hinterroos 1, 8184 Bachenbülach, ZH",2022-09-07 09:00:00,3.5,92,1,25.05,47.503761291503906,8.543971061706543
1662023723-672,"Wülflingerstrasse 151b, 8408 Winterthur, ZH",2022-09-07 09:00:00,3.5,85,0,24.82,47.508567810058594,8.704839706420898
1662023707-548,"Moosstrasse 22, 8630 Rüti ZH, ZH",2022-09-07 09:00:00,3.0,61,0,17.87,47.254005432128906,8.855942726135254
1662023723-663,"Bachtelstrasse 24b, 8630 Rüti ZH, ZH",2022-09-07 09:00:00,4.0,79,0,20.51,47.26611328125,8.86687183380127
1662023801-1268,"Jungstrasse 18, 8050 Zürich, ZH",2022-09-07 09:00:00,2.0,54,0,29.07,47.41508865356445,8.543237686157227
1662023686-379,"Seenerstrasse 218, 8405 Winterthur, ZH",2022-09-07 09:00:00,3.0,65,0,26.92,47.48553466796875,8.758892059326172
1662023798-1228,"Goldschlägistrasse 12, 8952 Schlieren, ZH",2022-09-07 09:00:00,5.5,144,0,21.88,47.39844512939453,8.43955135345459
1662023686-366,"Alte Landstrasse 95, 8804 Au ZH, ZH",2022-09-07 09:00:00,3.5,76,0,27.96,47.24683380126953,8.636049270629883
1662023711-569,"In der Au 30, 8706 Meilen, ZH",2022-09-07 09:00:00,3.0,69,0,22.75,47.27286148071289,8.664660453796387
1662023749-861,"Niderwisstrasse 2, 8627 Grüningen, ZH",2022-09-07 09:00:00,3.5,69,0,24.2,,
1662023786-1132,"Römerstrasse 52, 8400 Winterthur, ZH",2022-09-07 09:00:00,2.5,56,0,24.82,47.50064468383789,8.743654251098633
1662023739-790,"Badenerstrasse  250, 8004 Zürich, ZH",2022-09-07 09:00:00,3.5,74,1,56.76,47.3759880065918,8.516037940979004
1662023749-846,"Wehntalerstr. 321, 8106 Adlikon b. Regensdorf, ZH",2022-09-07 09:00:00,2.5,77,0,25.97,47.45172119140625,8.465733528137207
1662023804-1281,"Püntstrasse 9, 8165 Oberweningen, ZH",2022-09-07 09:00:00,3.5,60,0,24.67,47.49998092651367,8.407363891601562
1662023717-622,"8704 Herrliberg, ZH",2022-09-07 09:00:00,1.0,18,0,63.89,47.28742218017578,8.617650032043457
1662023810-1335,"Am Pfisterhölzli 36, 8606 Greifensee, ZH",2022-09-07 09:00:00,5.0,94,0,20.36,47.36343765258789,8.69112777709961
1662023810-1330,"Oberhusstrasse 24, 8134 Adliswil, ZH",2022-09-07 09:00:00,3.5,87,0,23.85,47.29860305786133,8.523846626281738
1662023749-851,"Ifangstrasse 71, 8153 Rümlang, ZH",2022-09-07 09:00:00,4.5,89,0,23.54,47.44933319091797,8.537286758422852
1662023807-1310,"Gussstrasse 46, 8180 Bülach, ZH",2022-09-07 09:00:00,4.5,93,0,22.8,47.52552032470703,8.536998748779297
1662023701-481,"Spranglenstr. 34, 8303 Bassersdorf, ZH",2022-09-07 09:00:00,3.5,96,0,16.67,47.44435119628906,8.61848258972168
1662023764-978,"Rütibach 11, 8340 Hinwil, ZH",2022-09-07 09:00:00,3.5,100,0,18.55,47.298648834228516,8.839847564697266
1662023764-984,"Unt. Schöntalstrasse 5, 8406 Winterthur, ZH",2022-09-07 09:00:00,3.0,61,0,23.69,47.49348831176758,8.708704948425293
1662023767-1000,"Oberlandstr. 75, 8610 Uster, ZH",2022-09-07 09:00:00,3.5,92,0,21.96,47.35482406616211,8.715861320495605
1662023789-1156,"Weberstrasse 91, 8400 Winterthur, ZH",2022-09-07 09:00:00,4.5,109,0,22.94,47.49053192138672,8.746732711791992
1662023742-802,"Am Balsberg 32, 8302 Kloten, ZH",2022-09-07 09:00:00,1.0,29,0,38.28,47.44306945800781,8.576788902282715
1662023749-852,"Altstetterstrasse 178, 8048 Zürich, ZH",2022-09-07 09:00:00,1.5,77,0,31.82,47.385684967041016,8.485180854797363
1662023749-864,"Jägerstrasse 59, 8406 Winterthur, ZH",2022-09-07 09:00:00,3.5,82,0,28.66,47.4949951171875,8.713829040527344
1662023807-1302,"Sulzbergstrasse 8, 8400 Winterthur, ZH",2022-09-07 09:00:00,2.0,51,0,30.39,47.503273010253906,8.7293701171875
1662023780-1101,"Höglerstrasse 43, 8600 Dübendorf, ZH",2022-09-07 09:00:00,3.5,68,0,24.56,47.39238357543945,8.614373207092285
1662023786-1141,"Hündlerstrasse 77, 8406 Winterthur, ZH",2022-09-07 09:00:00,1.5,100,1,22.0,47.481689453125,8.69902229309082
1662023764-970,"Guyer-Zeller-Strasse 1, 8620 Wetzikon ZH, ZH",2022-09-07 09:00:00,3.5,95,0,21.05,47.314697265625,8.793615341186523
1662023786-1147,"Etzelstrasse 6, 8038 Zürich, ZH",2022-09-07 09:00:00,3.5,75,0,54.67,47.34442138671875,8.530671119689941
1662023742-796,"Dorfstrasse 10, 8904 Aesch ZH, ZH",2022-09-07 09:00:00,1.5,60,0,27.5,,
1662023786-1145,"Heliosstrasse 12, 8032 Zürich, ZH",2022-09-07 09:00:00,4.5,97,0,59.9,47.363853454589844,8.559439659118652
1662023795-1222,"Vorbruggenstr. 26, 8422 Pfungen, ZH",2022-09-07 09:00:00,4.5,109,0,20.09,47.519439697265625,8.640228271484375
1662023780-1089,"Else-Züblin-Strasse 77, 8404 Winterthur, ZH",2022-09-07 09:00:00,2.5,76,0,26.64,47.50312042236328,8.763753890991211
1662023739-776,"Winterthurerstrasse 5, 8472 Seuzach, ZH",2022-09-07 09:00:00,5.5,119,0,18.82,47.5356330871582,8.730208396911621
1662023692-414,"Kunklerstrasse 34, 8600 Dübendorf, ZH",2022-09-07 09:00:00,2.5,53,0,26.23,47.39944839477539,8.628541946411133
1662023720-637,"Rheinfallstrasse 7, 8447 Dachsen, ZH",2022-09-07 09:00:00,4.5,117,0,20.09,47.67084503173828,8.612621307373047
1662023764-969,"Grüzefeldstrasse 44, 8400 Winterthur, ZH",2022-09-07 09:00:00,3.5,75,0,22.0,47.49379348754883,8.751358032226562
1662023714-587,"8154 Oberglatt ZH, ZH",2022-09-07 09:00:00,1.0,70,0,33.57,47.48018264770508,8.524710655212402
1662023695-450,"Schaffhauserstrasse 32, 8400 Winterthur, ZH",2022-09-07 09:00:00,4.5,87,0,20.34,47.507225036621094,8.723393440246582
1662023711-564,"Baurstrasse 29, 8008 Zürich, ZH",2022-09-07 09:00:00,1.5,30,0,126.33,47.35592269897461,8.554497718811035
1662023798-1238,"Feldblumenstrasse 10, 8048 Zürich, ZH",2022-09-07 09:00:00,4.5,125,0,35.84,47.388099670410156,8.482545852661133
1662023733-722,"Rebenstrasse 42, 8307 Effretikon, ZH",2022-09-07 09:00:00,3.5,73,0,33.97,47.425533294677734,8.701360702514648
1662023749-841,"Albisstrasse 31, 8915 Hausen am Albis, ZH",2022-09-07 09:00:00,1.5,59,0,25.25,47.249515533447266,8.529131889343262
1662023749-863,"Seuzacherstr. 11a, 8400 Winterthur, ZH",2022-09-07 09:00:00,3.5,95,0,26.11,47.518707275390625,8.720742225646973
1662023758-916,"Forchstrasse 185A, 8132 Hinteregg, ZH",2022-09-07 09:00:00,5.5,170,0,17.24,47.30646514892578,8.682995796203613
1662023761-959,"Weststrasse 68, 8620 Wetzikon ZH, ZH",2022-09-07 09:00:00,2.5,55,0,26.73,47.3298454284668,8.796719551086426
1662023733-741,"General-Guisan-Strasse 43, 8400 Winterthur, ZH",2022-09-07 09:00:00,3.5,78,0,19.1,47.49982833862305,8.733386993408203
1662023723-667,"8001 Zürich, ZH",2022-09-07 09:00:00,4.5,167,0,0.14,47.368934631347656,8.54139232635498
1662023745-839,"Mühlestrasse 1, 8157 Dielsdorf, ZH",2022-09-07 09:00:00,4.5,108,0,23.23,47.48301696777344,8.453057289123535
1662023695-447,"Mühlestalden 4, 8824 Schönenberg ZH, ZH",2022-09-07 09:00:00,5.0,130,0,14.77,47.199119567871094,8.654162406921387
1662023810-1333,"Maneggplatz 14, 8041 Zürich, ZH",2022-09-07 09:00:00,3.5,91,0,32.42,47.340206146240234,8.520726203918457
1662023813-1367,"Wolserstrasse 30a, 8912 Obfelden, ZH",2022-09-07 09:00:00,4.5,100,0,25.4,47.260929107666016,8.427953720092773
1662023777-1074,"Auerenstrasse 14, 8820 Wädenswil, ZH",2022-09-07 09:00:00,2.5,79,1,28.73,47.229774475097656,8.666169166564941
1662023692-425,"Geissewinkel 1, 8197 Rafz, ZH",2022-09-07 09:00:00,3.5,66,0,23.94,47.61446762084961,8.536229133605957
1662023701-486,"8630 Rüti ZH, ZH",2022-09-07 09:00:00,2.5,60,0,26.35,47.24986267089844,8.852066993713379
1662023692-431,"8057 Zürich, ZH",2022-09-07 09:00:00,3.0,74,0,32.01,47.393585205078125,8.539556503295898
1662023777-1059,"Türlimattstr. 3, 8404 Winterthur, ZH",2022-09-07 09:00:00,4.5,85,0,22.24,47.507991790771484,8.749725341796875
1662023783-1105,"Katharina Sulzer Platz 8, 8400 Winterthur, ZH",2022-09-07 09:00:00,2.5,111,0,21.35,47.496971130371094,8.717944145202637
1662023777-1070,"Zürichstr. 106, 8910 Affoltern am Albis, ZH",2022-09-07 09:00:00,2.0,47,0,30.74,47.27918243408203,8.45419692993164
1662023698-457,"Sonnenrain 10, 8700 Küsnacht ZH, ZH",2022-09-07 09:00:00,5.0,146,0,39.25,47.323341369628906,8.602655410766602
1662023810-1338,"Feldstrasse 40, 8004 Zürich, ZH",2022-09-07 09:00:00,1.5,51,0,34.9,47.3758544921875,8.521323204040527
1662023698-472,"Badenerstrasse 595, 8048 Zürich, ZH",2022-09-07 09:00:00,4.0,105,0,36.57,47.3852653503418,8.49389934539795
1662023783-1114,"Huebwiesenstrasse 20, 8954 Geroldswil, ZH",2022-09-07 09:00:00,5.5,173,0,14.62,47.4210090637207,8.412511825561523
1662023801-1260,"am Oeschbrig 5, 8053 Zürich, ZH",2022-09-07 09:00:00,4.5,98,0,36.38,47.35725784301758,8.599966049194336
1662023804-1283,"Hasenackerstrasse 41, 8708 Männedorf, ZH",2022-09-07 09:00:00,2.5,74,0,41.53,47.25540542602539,8.699341773986816
1662023711-574,"Baumgarten 4, 8632 Tann, ZH",2022-09-07 09:00:00,4.5,99,0,19.6,47.26750564575195,8.850875854492188
1662023739-786,"Letzigraben 165, 8047 Zürich, ZH",2022-09-07 09:00:00,4.5,96,0,38.44,47.374027252197266,8.495600700378418
1662023761-943,"Am Wasser 161, 8049 Zürich, ZH",2022-09-07 09:00:00,1.5,22,0,79.55,47.399436950683594,8.495816230773926
1662023798-1247,"Wildbachstrasse 21, 8424 Embrach, ZH",2022-09-07 09:00:00,4.5,100,0,19.44,47.51242446899414,8.589634895324707
1662023810-1327,"Hulfteggstrasse 18, 8400 Winterthur, ZH",2022-09-07 09:00:00,3.0,62,0,24.11,47.49177169799805,8.75317096710205
1662023739-785,"Letzigraben 165, 8047 Zürich, ZH",2022-09-07 09:00:00,2.5,58,0,41.21,47.374027252197266,8.495600700378418
1662023707-552,"Hasenbühlweg 9, 8302 Kloten, ZH",2022-09-07 09:00:00,3.5,76,0,21.22,47.44316101074219,8.581664085388184
1662023793-1194,"Mühlebachstrasse 76, 8008 Zürich, ZH",2022-09-07 09:00:00,4.0,115,0,31.65,47.36259078979492,8.553037643432617
1662023761-949,"Soodstrasse 90, 8041 Zürich, ZH",2022-09-07 09:00:00,1.5,161,0,17.05,47.32560729980469,8.51819896697998
1662023795-1214,"Hittnauerstrasse 62, 8330 Pfäffikon ZH, ZH",2022-09-07 09:00:00,3.0,60,0,25.0,47.364715576171875,8.796123504638672
1662023795-1206,"Bühlstrasse 45C, 8055 Zürich, ZH",2022-09-07 09:00:00,3.5,103,0,27.86,47.36454772949219,8.51507568359375
1662023707-532,"Hochstrasse 141, 8330 Pfäffikon ZH, ZH",2022-09-07 09:00:00,2.5,91,0,18.96,47.36073303222656,8.793621063232422
1662023795-1224,"Alte Blindenholzstrasse 3, 8616 Riedikon, ZH",2022-09-07 09:00:00,4.5,107,0,18.04,47.33308029174805,8.712552070617676
1662023807-1319,"Gewerbestrasse 19, 8155 Niederhasli, ZH",2022-09-07 09:00:00,4.5,107,0,19.53,47.47941970825195,8.497612953186035
1662023764-976,"Schulergasse 4, 8406 Winterthur, ZH",2022-09-07 09:00:00,2.0,39,0,26.67,47.4910888671875,8.705008506774902
1662023810-1323,"Schibliraiweg 11, 8636 Wald ZH, ZH",2022-09-07 09:00:00,3.0,50,0,23.9,47.273380279541016,8.919610977172852
1662023795-1205,"Steiggasse 4, 8400 Winterthur, ZH",2022-09-07 09:00:00,2.0,52,0,32.69,47.498043060302734,8.727981567382812
1662023752-885,"Hegifeldstrasse 64, 8404 Winterthur, ZH",2022-09-07 09:00:00,3.0,61,0,21.97,47.50727081298828,8.76787281036377
1662023714-585,"Riedenhaldenstrasse 254, 8046 Zürich, ZH",2022-09-07 09:00:00,3.0,66,0,31.67,47.419857025146484,8.510608673095703
1662023755-907,"Oerlikonerstrasse 87, 8057 Zürich, ZH",2022-09-07 09:00:00,3.5,84,0,35.12,47.4050407409668,8.546213150024414
1662023804-1289,"Im Handschüssel 6, 8472 Seuzach, ZH",2022-09-07 09:00:00,2.5,56,0,25.09,47.52970504760742,8.732017517089844
1662023739-783,"Espenstr. 73, 8408 Winterthur, ZH",2022-09-07 09:00:00,3.5,83,0,24.58,47.50705337524414,8.680699348449707
1662023714-579,"Bachmattstr. 59, 8048 Zürich, ZH",2022-09-07 09:00:00,2.5,71,0,32.39,47.389041900634766,8.483692169189453
1662023742-808,"8636 Wald ZH, ZH",2022-09-07 09:00:00,2.5,46,0,30.22,47.27473068237305,8.927553176879883
1662023689-385,"8053 Zürich, ZH",2022-09-07 09:00:00,4.5,171,1,46.2,47.35861587524414,8.578998565673828
1662023742-815,"Oberholzstrasse 3, 8603 Schwerzenbach, ZH",2022-09-07 09:00:00,3.5,75,0,23.73,47.380428314208984,8.66160774230957
1662023739-772,"Dorfstrasse 6a, 8484 Weisslingen, ZH",2022-09-07 09:00:00,2.5,57,0,27.19,47.43025588989258,8.765653610229492
1662023764-968,"Twäracherstrasse 3, 8118 Pfaffhausen, ZH",2022-09-07 09:00:00,4.5,100,0,19.8,47.36186218261719,8.62444019317627
1662023701-497,"Kempttalstrasse 43, 8330 Pfäffikon ZH, ZH",2022-09-07 09:00:00,3.5,88,0,21.25,47.36790084838867,8.780043601989746
1662023736-756,"Birmensdorferstrasse 598, 8055 Zürich, ZH",2022-09-07 09:00:00,3.5,97,0,37.06,47.36793518066406,8.488553047180176
1662023752-869,"Schrennengasse 14, 8003 Zürich, ZH",2022-09-07 09:00:00,2.5,45,0,67.78,47.36940383911133,8.516093254089355
1662023813-1354,"Unterdorfstrasse 57, 8124 Maur, ZH",2022-09-07 09:00:00,2.5,66,0,31.67,47.339515686035156,8.672159194946289
1662023745-840,"8303 Bassersdorf, ZH",2022-09-07 09:00:00,2.5,78,0,33.33,47.43027877807617,8.638310432434082
1662023801-1266,"Würglenstrasse 20, 8307 Effretikon, ZH",2022-09-07 09:00:00,4.5,104,0,28.85,47.43473815917969,8.690179824829102
1662023704-528,"Redingstrasse 3, 8038 Zürich, ZH",2022-09-07 09:00:00,2.5,60,0,32.0,47.348960876464844,8.526168823242188
1662023727-680,"Binzacherweg 1, 8166 Niederweningen, ZH",2022-09-07 09:00:00,2.5,63,0,21.59,47.50952911376953,8.376884460449219
1662023807-1312,"Bahnhofstr. 8 B, 8353 Elgg, ZH",2022-09-07 09:00:00,3.5,82,0,21.1,,
1662023707-535,"Säntisweg 3, 8604 Volketswil, ZH",2022-09-07 09:00:00,1.0,35,0,28.43,47.394859313964844,8.680851936340332
1662023798-1245,"Bachstrasse 13, 8902 Urdorf, ZH",2022-09-07 09:00:00,2.5,62,0,32.74,47.381263732910156,8.424240112304688
1662023704-507,"Hohle Gasse 11, 8154 Oberglatt ZH, ZH",2022-09-07 09:00:00,4.5,92,0,21.3,47.479251861572266,8.506564140319824
1662023711-559,"Birmensdorferstrasse 596, 8055 Zürich, ZH",2022-09-07 09:00:00,1.5,55,0,39.91,47.3679084777832,8.488808631896973
1662023692-426,"8153 Rümlang, ZH",2022-09-07 09:00:00,2.5,125,0,25.0,47.448753356933594,8.539965629577637
1662023801-1255,"Wingertlistrasse 19, 8405 Winterthur, ZH",2022-09-07 09:00:00,2.5,70,0,19.71,47.48936462402344,8.760986328125
1662023689-405,"Dorfstrasse 33, 8184 Bachenbülach, ZH",2022-09-07 09:00:00,3.5,85,0,19.59,47.50346374511719,8.549564361572266
1662023742-813,"Reutlingerstr. 17, 8404 Winterthur, ZH",2022-09-07 09:00:00,5.5,109,0,20.92,47.522037506103516,8.75655746459961
1662023804-1275,"Neutalstrasse 18, 8636 Wald ZH, ZH",2022-09-07 09:00:00,1.5,269,1,11.06,47.30300521850586,8.915440559387207
1662023749-843,"Ottikerstrasse 11, 8006 Zürich, ZH",2022-09-07 09:00:00,1.5,52,0,48.46,47.385704040527344,8.542648315429688
1662023755-906,"Tannenheimweg 5, 8450 Andelfingen, ZH",2022-09-07 09:00:00,4.0,72,0,22.22,47.594337463378906,8.676440238952637
1662023780-1102,"Zeltweg 68, 8032 Zürich, ZH",2022-09-07 09:00:00,3.5,78,0,31.55,47.36709213256836,8.552876472473145
1662023801-1264,"Messikommerstrasse 37, 8620 Wetzikon ZH, ZH",2022-09-07 09:00:00,4.5,90,0,20.78,47.32208251953125,8.792054176330566
1662023801-1251,"Ankerstr. 114 / Müllerstr. 71, 8004 Zürich, ZH",2022-09-07 09:00:00,3.5,90,0,61.11,,
1662023798-1232,"Rainstrasse 10, 8134 Adliswil, ZH",2022-09-07 09:00:00,3.5,95,1,31.58,47.32304763793945,8.51756763458252
1662023810-1325,"Bahnhofstr. 8 A, 8353 Elgg, ZH",2022-09-07 09:00:00,3.5,85,0,21.65,,
1662023745-824,"Oberdorfstrasse 4, 8910 Affoltern am Albis, ZH",2022-09-07 09:00:00,6.5,194,0,24.54,47.27767562866211,8.453544616699219
1662023777-1071,"Pilatusstrasse 22, 8330 Pfäffikon ZH, ZH",2022-09-07 09:00:00,1.0,108,0,21.34,47.36396408081055,8.783564567565918
1662023804-1280,"Hallenstrasse 8, 8008 Zürich, ZH",2022-09-07 09:00:00,1.0,23,0,73.91,47.36317825317383,8.54866886138916
1662023798-1231,"Im Geeren 38, 8112 Otelfingen, ZH",2022-09-07 09:00:00,3.5,117,0,21.79,47.46659469604492,8.38892936706543
1662023692-419,"Zürcherstrasse 10, 8193 Eglisau, ZH",2022-09-07 09:00:00,1.5,34,0,30.59,47.57310104370117,8.523083686828613
1662023813-1365,"Waldeggweg 2a, 8302 Kloten, ZH",2022-09-07 09:00:00,2.5,70,1,42.71,47.44088363647461,8.57575511932373
1662023730-699,"Uhwieserstrasse 3, 8247 Flurlingen, ZH",2022-09-07 09:00:00,2.0,48,0,31.04,47.68281936645508,8.630277633666992
1662023783-1113,"Bahnhofstrasse 17, 8708 Männedorf, ZH",2022-09-07 09:00:00,5.0,140,0,15.64,47.253421783447266,8.692337989807129
1662023755-903,"Feldstr. 19, 8805 Richterswil, ZH",2022-09-07 09:00:00,3.5,86,0,22.67,47.209232330322266,8.689154624938965
1662023730-708,"Meierhofstrasse 6, 8108 Dällikon, ZH",2022-09-07 09:00:00,3.5,79,0,21.52,47.438838958740234,8.436247825622559
1662023764-979,"Altburgstr. 17, 8105 Regensdorf, ZH",2022-09-07 09:00:00,4.5,107,0,22.99,47.42826843261719,8.474649429321289
1662023723-668,"Werkstrasse 47, 8630 Rüti ZH, ZH",2022-09-07 09:00:00,3.5,80,0,25.62,47.252437591552734,8.853998184204102
1662023701-503,"8608 Bubikon, ZH",2022-09-07 09:00:00,3.5,130,0,19.23,47.27738571166992,8.80030632019043
1662023701-489,"8057 Zürich, ZH",2022-09-07 09:00:00,4.0,85,0,45.18,47.393585205078125,8.539556503295898
1662023767-996,"Claisstrasse 11, 8408 Winterthur, ZH",2022-09-07 09:00:00,3.5,93,0,24.62,47.51573181152344,8.685565948486328
1662023777-1061,"Rigiweg 10, 8604 Volketswil, ZH",2022-09-07 09:00:00,3.0,77,0,19.68,47.391014099121094,8.682113647460938
1662023720-645,"Rümikerstrasse 36, 8409 Winterthur, ZH",2022-09-07 09:00:00,3.5,83,0,21.69,47.5040168762207,8.769974708557129
1662023810-1336,"Am Burenbüel 7, 8320 Fehraltorf, ZH",2022-09-07 09:00:00,3.5,85,0,21.76,47.383670806884766,8.759480476379395
1662023758-932,"Seuzacherstr. 9b, 8400 Winterthur, ZH",2022-09-07 09:00:00,3.5,94,0,26.38,47.51848220825195,8.719965934753418
1662023801-1267,"Färberstrasse 27, 8008 Zürich, ZH",2022-09-07 09:00:00,2.5,77,0,68.18,47.36214065551758,8.549431800842285
1662023780-1094,"Stampfenbachplatz 4, 8006 Zürich, ZH",2022-09-07 09:00:00,4.5,134,0,32.01,47.380401611328125,8.542487144470215
1662023695-451,"Rütlistr. 17, 8400 Winterthur, ZH",2022-09-07 09:00:00,3.0,66,0,25.76,47.50872802734375,8.72221565246582
1662023813-1348,"Unterdorfstrasse 53, 8124 Maur, ZH",2022-09-07 09:00:00,3.5,87,0,29.89,47.33962631225586,8.67275619506836
1662023720-625,"Seestrasse 139, 8610 Uster, ZH",2022-09-07 09:00:00,2.5,77,0,25.84,47.345420837402344,8.697589874267578
1662023764-975,"Wehrenbachhalde 39, 8053 Zürich, ZH",2022-09-07 09:00:00,6.0,153,0,27.71,47.35622787475586,8.580233573913574
1662023733-726,"Heusserstrasse 7, 8634 Hombrechtikon, ZH",2022-09-07 09:00:00,5.5,105,0,20.67,47.25457000732422,8.773594856262207
1662023761-948,"Seefeldstr. 168, 8008 Zürich, ZH",2022-09-07 09:00:00,4.5,89,0,51.01,47.35554504394531,8.556349754333496
1662023767-986,"Jägerstrasse 59, 8406 Winterthur, ZH",2022-09-07 09:00:00,3.5,85,0,28.47,47.4949951171875,8.713829040527344
1662023752-884,"Zürcherstrasse 58, 8406 Winterthur, ZH",2022-09-07 09:00:00,2.5,82,0,23.05,47.49482345581055,8.711419105529785
1662023807-1297,"Ifangweg 11, 8610 Uster, ZH",2022-09-07 09:00:00,2.5,51,0,29.41,47.358299255371094,8.715127944946289
1662023749-844,"Säntisstrasse  8, 8302 Kloten, ZH",2022-09-07 09:00:00,2.5,77,0,29.09,47.45154571533203,8.59282398223877
1662023807-1299,"Archstrasse 13, 8610 Uster, ZH",2022-09-07 09:00:00,3.0,67,0,24.78,47.3439826965332,8.731561660766602
1662023749-859,"Käferholzstrasse 60, 8057 Zürich, ZH",2022-09-07 09:00:00,4.5,117,0,34.02,47.40255355834961,8.532090187072754
1662023686-383,"Hinterbergstrasse 57, 8044 Zürich, ZH",2022-09-07 09:00:00,2.5,62,0,39.92,47.382015228271484,8.556857109069824
1662023742-800,"Amselweg 13, 8302 Kloten, ZH",2022-09-07 09:00:00,3.0,65,0,25.38,47.44395065307617,8.588813781738281
1662023758-936,"Oberdorfstrassse 4, 8910 Affoltern am Albis, ZH",2022-09-07 09:00:00,6.5,194,0,24.54,,
1662023689-396,"Rosentalstrasse 72, 8400 Winterthur, ZH",2022-09-07 09:00:00,1.5,55,1,27.55,47.51045227050781,8.723488807678223
1662023767-1003,"Winkelrainweg 3c, 8102 Oberengstringen, ZH",2022-09-07 09:00:00,4.5,138,0,26.99,47.40855026245117,8.457937240600586
1662023804-1287,"Höschgasse 46, 8008 Zürich, ZH",2022-09-07 09:00:00,3.0,78,0,47.44,47.357513427734375,8.55413818359375
1662023714-600,"Sonnenblickstrasse 23, 8404 Winterthur, ZH",2022-09-07 09:00:00,4.0,88,0,23.47,47.516544342041016,8.758272171020508
1662023761-951,"Unterdorfstrasse 44a, 8494 Bauma, ZH",2022-09-07 09:00:00,4.5,108,0,17.5,47.36958694458008,8.871255874633789
1662023723-653,"Sunnebüelstr. 25, 8604 Volketswil, ZH",2022-09-07 09:00:00,4.0,86,0,20.81,47.392845153808594,8.681580543518066
1662023733-739,"Imbisbühlstrasse 110, 8049 Zürich, ZH",2022-09-07 09:00:00,3.5,131,1,24.35,47.405967712402344,8.487181663513184
1662023761-940,"Im Guet 10, 8172 Niederglatt ZH, ZH",2022-09-07 09:00:00,4.5,102,0,19.85,47.49287033081055,8.502676963806152
1662023701-490,"Friedenstrasse 4a, 8304 Wallisellen, ZH",2022-09-07 09:00:00,1.0,35,0,38.57,47.4157829284668,8.586012840270996
1662023704-514,"Chofelstrasse 6, 8174 Stadel b. Niederglatt, ZH",2022-09-07 09:00:00,4.5,139,0,16.47,47.527557373046875,8.465577125549316
1662023789-1171,"Gutstrasse 172 174 176, 8055 Zürich, ZH",2022-09-07 09:00:00,3.0,60,0,32.33,,
1662023795-1212,"Feldstrasse 16, 8400 Winterthur, ZH",2022-09-07 09:00:00,1.5,158,1,21.71,47.506431579589844,8.718624114990234
1662023727-673,"Albisstrasse 11, 8932 Mettmenstetten, ZH",2022-09-07 09:00:00,3.0,54,0,27.41,47.24422073364258,8.464112281799316
1662023711-572,"Reidholzstrasse 28a, 8805 Richterswil, ZH",2022-09-07 09:00:00,4.0,105,0,19.24,47.21195983886719,8.694021224975586
1662023707-536,"Moritz Meyer-Weg 11, 8180 Bülach, ZH",2022-09-07 09:00:00,4.5,89,0,19.44,47.514156341552734,8.545286178588867
1662023793-1181,"Schützenstrasse 42, 8400 Winterthur, ZH",2022-09-07 09:00:00,3.5,90,0,22.56,47.50262451171875,8.718854904174805
1662023755-904,"Allmendstrasse 40, 8154 Oberglatt ZH, ZH",2022-09-07 09:00:00,4.5,92,0,19.89,47.47051239013672,8.513020515441895
1662023807-1306,"Feldstrasse 39, 8004 Zürich, ZH",2022-09-07 09:00:00,3.0,78,0,32.05,47.3762092590332,8.521111488342285
1662023783-1107,"Langenmattstrasse 22, 8617 Mönchaltorf, ZH",2022-09-07 09:00:00,4.0,85,0,21.18,47.315738677978516,8.719118118286133
1662023786-1146,"Beckhammer 19, 8057 Zürich, ZH",2022-09-07 09:00:00,4.5,85,0,61.06,47.401058197021484,8.541216850280762
1662023714-582,"Unterdorfstrasse 3, 8933 Maschwanden, ZH",2022-09-07 09:00:00,3.0,110,0,19.91,47.23373794555664,8.423295021057129
1662023701-491,"Schlossackerstrasse 11, 8404 Winterthur, ZH",2022-09-07 09:00:00,3.5,115,0,17.22,47.50833511352539,8.767489433288574
1662023767-985,"Alte Landstrasse 3, 8114 Dänikon ZH, ZH",2022-09-07 09:00:00,2.5,56,0,26.61,47.44636917114258,8.408273696899414
1662023774-1033,"Florastrasse 4, 8307 Effretikon, ZH",2022-09-07 09:00:00,3.5,89,1,26.29,47.4268684387207,8.689535140991211
1662023761-939,"Grosswiesenstrasse 20, 8051 Zürich, ZH",2022-09-07 09:00:00,3.0,49,0,29.39,47.40337371826172,8.583436012268066
1662023752-882,"Soodstrasse 90, 8041 Zürich, ZH",2022-09-07 09:00:00,2.5,75,0,31.07,47.32560729980469,8.51819896697998
1662023686-370,"Lindenstrasse 28, 8155 Niederhasli, ZH",2022-09-07 09:00:00,3.5,82,0,21.95,47.48271942138672,8.489215850830078
1662023807-1301,"Eichliackerstrasse 18, 8406 Winterthur, ZH",2022-09-07 09:00:00,2.0,46,0,31.09,47.48926544189453,8.713685989379883
1662023742-805,"Zelglistrasse 11A, 8620 Wetzikon ZH, ZH",2022-09-07 09:00:00,3.5,100,0,22.3,47.330013275146484,8.786087989807129
